[{"bearing": "N", "indicator": "N-bound", "street": "", "name": "Roundabout B3275", "long": "-4.947884338", "naptanCode": "corgjtpm", "lat": "50.3526506085"}, {"bearing": "S", "indicator": "S-bound", "street": "", "name": "Roundabout B3275", "long": "-4.9478759888", "naptanCode": "corgjtpt", "lat": "50.3525158848"}, {"bearing": "E", "indicator": "opp", "street": "A3058", "name": "Parkins", "long": "-4.9470540045", "naptanCode": "cordatgd", "lat": "50.3524107951"}, {"bearing": "W", "indicator": "W-bound", "street": "A3058", "name": "Parkins", "long": "-4.947285969", "naptanCode": "cordatgj", "lat": "50.3522969634"}, {"bearing": "W", "indicator": "opp", "street": "Marine Parade", "name": "New Steine", "long": "-0.1320972077", "naptanCode": "bridpta", "lat": "50.8192740625"}, {"bearing": "W", "indicator": "W-bound", "street": "Marine Drive", "name": "Marine Gate", "long": "-0.1041302477", "naptanCode": "bridmwp", "lat": "50.8146587306"}, {"bearing": "W", "indicator": "opp", "street": "Marine Drive", "name": "Roedean Cafe", "long": "-0.0944817659", "naptanCode": "brijada", "lat": "50.812792682"}, {"bearing": "W", "indicator": "opp", "street": "Marine Drive", "name": "Roedean School", "long": "-0.0874831164", "naptanCode": "brijadw", "lat": "50.8110592495"}, {"bearing": "N", "indicator": "NE-bound", "street": "Fleet Street", "name": "Fleet Street", "long": "-0.139144366", "naptanCode": "brimtgw", "lat": "50.8312853878"}, {"bearing": "S", "indicator": "Stop S", "street": "London Road", "name": "London Road Shops", "long": "-0.1358758977", "naptanCode": "brijdmg", "lat": "50.8302708757"}, {"bearing": "SE", "indicator": "Stop K", "street": "London Road", "name": "Baker Street", "long": "-0.1367357324", "naptanCode": "briapgd", "lat": "50.8318585122"}, {"bearing": "NE", "indicator": "Stop A", "street": "Stanford Avenue", "name": "Stanford Avenue", "long": "-0.1423270956", "naptanCode": "brijwjd", "lat": "50.8369661717"}, {"bearing": "S", "indicator": "nr", "street": "Beaconsfield Road", "name": "Springfield Road", "long": "-0.1402469141", "naptanCode": "brijdpm", "lat": "50.8371308892"}, {"bearing": "SE", "indicator": "Stop H", "street": "London Road", "name": "Preston Circus", "long": "-0.1381765743", "naptanCode": "bridwgd", "lat": "50.8331226489"}, {"bearing": "SE", "indicator": "opp", "street": "Preston Road", "name": "Lovers Walk", "long": "-0.1465648967", "naptanCode": "bridmpa", "lat": "50.8382657138"}, {"bearing": "SE", "indicator": "opp", "street": "Preston Road", "name": "Nestor Court", "long": "-0.1485261082", "naptanCode": "bridpma", "lat": "50.839313143"}, {"bearing": "SE", "indicator": "S-bound", "street": "Preston Road", "name": "Preston Drove", "long": "-0.1510253285", "naptanCode": "bridwgm", "lat": "50.8418440305"}, {"bearing": "W", "indicator": "adj", "street": "Preston Drove", "name": "Preston Manor", "long": "-0.1492720392", "naptanCode": "bridwgp", "lat": "50.843435092"}, {"bearing": "S", "indicator": "adj", "street": "London Road", "name": "Harrington Road", "long": "-0.1513924653", "naptanCode": "bridawa", "lat": "50.8458520349"}, {"bearing": "SE", "indicator": "adj", "street": "London Road", "name": "Varndean Road", "long": "-0.1526392485", "naptanCode": "brijpwp", "lat": "50.8484529675"}, {"bearing": "SE", "indicator": "opp", "street": "London Road", "name": "Cedars Gardens", "long": "-0.1527620308", "naptanCode": "briamat", "lat": "50.8500198099"}, {"bearing": "SE", "indicator": "opp", "street": "London Road", "name": "Tongdean Lane East", "long": "-0.1539933745", "naptanCode": "brijmwp", "lat": "50.8522967091"}, {"bearing": "S", "indicator": "opp", "street": "London Road", "name": "The Deneway East", "long": "-0.1543043708", "naptanCode": "brijmgd", "lat": "50.8555753215"}, {"bearing": "SW", "indicator": "Stop P", "street": "Lewes Road", "name": "The Level", "long": "-0.1319677487", "naptanCode": "brijmjt", "lat": "50.8303432625"}, {"bearing": "SW", "indicator": "adj", "street": "Lewes Road", "name": "Elm Grove", "long": "-0.1289755599", "naptanCode": "briatpw", "lat": "50.8327236112"}, {"bearing": "SW", "indicator": "opp", "street": "Lewes Road", "name": "St Pauls Street", "long": "-0.1275237284", "naptanCode": "brijgdt", "lat": "50.833869499"}, {"bearing": "SW", "indicator": "adj", "street": "Lewes Road", "name": "Melbourne Street", "long": "-0.1253839984", "naptanCode": "bridpda", "lat": "50.8358767069"}, {"bearing": "SW", "indicator": "adj", "street": "Lewes Road", "name": "Lewes Road Bus Garage", "long": "-0.1238243737", "naptanCode": "bridmaw", "lat": "50.8382889305"}, {"bearing": "SW", "indicator": "adj", "street": "Lewes Road", "name": "Coombe Road", "long": "-0.1214527009", "naptanCode": "briapdp", "lat": "50.8411107642"}, {"bearing": "E", "indicator": "opp", "street": "Western Road", "name": "Clarence Square", "long": "-0.1475903212", "naptanCode": "brijwmd", "lat": "50.8242068632"}, {"bearing": "E", "indicator": "adj", "street": "Kings Road", "name": "Ship Street", "long": "-0.1425072061", "naptanCode": "brimpaw", "lat": "50.8202677257"}, {"bearing": "E", "indicator": "adj", "street": "Kings Road", "name": "Brighton Centre", "long": "-0.1459028867", "naptanCode": "briamta", "lat": "50.8209243299"}, {"bearing": "E", "indicator": "opp", "street": "Kings Road", "name": "West Pier", "long": "-0.1507679686", "naptanCode": "briajap", "lat": "50.821766026"}, {"bearing": "SE", "indicator": "adj", "street": "North Street", "name": "Portland Street", "long": "-0.1423919021", "naptanCode": "brijtgm", "lat": "50.8235306085"}, {"bearing": "S", "indicator": "adj", "street": "Queen's Road", "name": "North Road", "long": "-0.1424964593", "naptanCode": "briamwd", "lat": "50.8255468652"}, {"bearing": "SE", "indicator": "opp", "street": "Kings Road", "name": "Bandstand", "long": "-0.1548166045", "naptanCode": "brimtmt", "lat": "50.8224327191"}, {"bearing": "E", "indicator": "adj", "street": "Kingsway", "name": "Holland Road", "long": "-0.1626215328", "naptanCode": "brimtmp", "lat": "50.8236261715"}, {"bearing": "E", "indicator": "adj", "street": "Kingsway", "name": "Fourth Avenue", "long": "-0.1717103408", "naptanCode": "brimpjt", "lat": "50.8246773428"}, {"bearing": "E", "indicator": "E-bound", "street": "Kingsway", "name": "King Alfred", "long": "-0.1784072659", "naptanCode": "brimjpm", "lat": "50.8255375838"}, {"bearing": "E", "indicator": "adj", "street": "Western Road", "name": "Brunswick Place", "long": "-0.1595110279", "naptanCode": "brijwmg", "lat": "50.8258165645"}, {"bearing": "E", "indicator": "E-bound", "street": "Furze Hill", "name": "St Anns Well Gardens", "long": "-0.1559511116", "naptanCode": "briajmg", "lat": "50.8285933555"}, {"bearing": "NE", "indicator": "NE-bound", "street": "Furze Hill", "name": "Furze Croft", "long": "-0.1576614955", "naptanCode": "brijdta", "lat": "50.828071766"}, {"bearing": "E", "indicator": "E-bound", "street": "Furze Hill", "name": "Top of Furze Hill", "long": "-0.1542864464", "naptanCode": "briawpd", "lat": "50.8286749524"}, {"bearing": "E", "indicator": "Stop P", "street": "Church Road", "name": "George Street South", "long": "-0.1748903514", "naptanCode": "brijwmj", "lat": "50.828333606"}, {"bearing": "E", "indicator": "opp", "street": "Kingsway", "name": "Hove Street South", "long": "-0.1819327507", "naptanCode": "briawtm", "lat": "50.8257994389"}, {"bearing": "E", "indicator": "adj", "street": "Kingsway", "name": "Westbourne Villas South", "long": "-0.184407794", "naptanCode": "bridjdp", "lat": "50.826053836"}, {"bearing": "E", "indicator": "adj", "street": "Kingsway", "name": "Babylon Lounge", "long": "-0.1889956031", "naptanCode": "brijtjg", "lat": "50.8263859688"}, {"bearing": "E", "indicator": "adj", "street": "Kingsway", "name": "Langdale Gardens", "long": "-0.1908802474", "naptanCode": "briajwp", "lat": "50.8264871621"}, {"bearing": "E", "indicator": "adj", "street": "Kingsway", "name": "Wish Road South", "long": "-0.1946325707", "naptanCode": "bridjtp", "lat": "50.8271298838"}, {"bearing": "E", "indicator": "adj", "street": "Kingsway", "name": "Tandridge Road", "long": "-0.1983521204", "naptanCode": "brijtwa", "lat": "50.8282576352"}, {"bearing": "NE", "indicator": "adj", "street": "Montpelier Road", "name": "Park Royal", "long": "-0.1517958707", "naptanCode": "brijaga", "lat": "50.8270166527"}, {"bearing": "E", "indicator": "adj", "street": "Kingsway", "name": "St Keyna Avenue South", "long": "-0.2032933721", "naptanCode": "bridtmj", "lat": "50.8290083696"}, {"bearing": "E", "indicator": "opp", "street": "Buckingham Place", "name": "Compton Avenue", "long": "-0.1443714661", "naptanCode": "briagwa", "lat": "50.8309009816"}, {"bearing": "E", "indicator": "E-bound", "street": "Buckingham Place", "name": "Seven Dials", "long": "-0.1464573598", "naptanCode": "briapaw", "lat": "50.8309431377"}, {"bearing": "SE", "indicator": "SE-bound", "street": "Dyke Road", "name": "Seven Dials", "long": "-0.1477257208", "naptanCode": "brijdag", "lat": "50.8315478748"}, {"bearing": "SE", "indicator": "SE-bound", "street": "Dyke Road", "name": "BHASVIC", "long": "-0.1496621527", "naptanCode": "brijdap", "lat": "50.8332154588"}, {"bearing": "E", "indicator": "opp", "street": "Old Shoreham Road", "name": "Montefiore Road North", "long": "-0.154527171", "naptanCode": "briagdw", "lat": "50.8344527104"}, {"bearing": "E", "indicator": "opp", "street": "Old Shoreham Road", "name": "Silverdale Road", "long": "-0.1567718704", "naptanCode": "bridpgw", "lat": "50.8347939849"}, {"bearing": "SE", "indicator": "SE-bound", "street": "Old Shoreham Road", "name": "The Upper Drive", "long": "-0.1606354924", "naptanCode": "brijdjm", "lat": "50.8358622602"}, {"bearing": "E", "indicator": "opp", "street": "Old Shoreham Road", "name": "The Drive", "long": "-0.1654912163", "naptanCode": "brijpmd", "lat": "50.8373507272"}, {"bearing": "E", "indicator": "opp", "street": "Old Shoreham Road", "name": "Hove Park Villas", "long": "-0.1690724173", "naptanCode": "brijmgm", "lat": "50.8383872979"}, {"bearing": "E", "indicator": "opp", "street": "Old Shoreham Road", "name": "Hove Park South", "long": "-0.1730649303", "naptanCode": "bridjap", "lat": "50.8390794468"}, {"bearing": "E", "indicator": "E-bound", "street": "Old Shoreham Road", "name": "Hove Park Tavern", "long": "-0.176617508", "naptanCode": "bridgwp", "lat": "50.8390360968"}, {"bearing": "E", "indicator": "opp", "street": "Old Shoreham Road", "name": "Aldrington Avenue", "long": "-0.1831485711", "naptanCode": "bridjam", "lat": "50.8391020185"}, {"bearing": "E", "indicator": "opp", "street": "Old Shoreham Road", "name": "Amherst Crescent", "long": "-0.1872340267", "naptanCode": "briadga", "lat": "50.8388687826"}, {"bearing": "E", "indicator": "adj", "street": "Old Shoreham Road", "name": "English Close", "long": "-0.1902801528", "naptanCode": "briadgj", "lat": "50.8383314889"}, {"bearing": "E", "indicator": "E-bound", "street": "Old Shoreham Road", "name": "Hove Cemetery", "long": "-0.1965940751", "naptanCode": "briatwg", "lat": "50.838501213"}, {"bearing": "E", "indicator": "adj", "street": "Old Shoreham Road", "name": "Stapley Road", "long": "-0.2002397289", "naptanCode": "bridgwd", "lat": "50.8382517289"}, {"bearing": "SE", "indicator": "adj", "street": "Dyke Road", "name": "Booths Museum", "long": "-0.153241969", "naptanCode": "brijmtg", "lat": "50.8371484649"}, {"bearing": "SE", "indicator": "adj", "street": "Dyke Road", "name": "Dyke Tavern", "long": "-0.1550741325", "naptanCode": "briagmp", "lat": "50.8385894626"}, {"bearing": "SW", "indicator": "Stop C", "street": "Upper Drive", "name": "Cardinal Newman School", "long": "-0.1583880798", "naptanCode": "briatjp", "lat": "50.8373917032"}, {"bearing": "SW", "indicator": "SW-bound", "street": "Vernon Terrace", "name": "Seven Dials", "long": "-0.1484383283", "naptanCode": "briajwj", "lat": "50.8300482465"}, {"bearing": "S", "indicator": "adj", "street": "The Drive", "name": "Upper Drive", "long": "-0.1665748995", "naptanCode": "brijdaw", "lat": "50.8347056366"}, {"bearing": "N", "indicator": "N-bound", "street": "Holland Road", "name": "Palmeira Square", "long": "-0.1620859796", "naptanCode": "brijpmj", "lat": "50.826055025"}, {"bearing": "E", "indicator": "E-bound", "street": "Lansdowne Road", "name": "Lansdowne Road", "long": "-0.1587219172", "naptanCode": "bridtjw", "lat": "50.8278276921"}, {"bearing": "S", "indicator": "adj", "street": "Ditchling Road", "name": "Bromley Road", "long": "-0.133828484", "naptanCode": "brijwmp", "lat": "50.8342493345"}, {"bearing": "SE", "indicator": "SE-bound", "street": "Friar Road", "name": "Friar Road East End", "long": "-0.1360009103", "naptanCode": "briajgw", "lat": "50.8510123388"}, {"bearing": "NE", "indicator": "Stop E", "street": "New England Road", "name": "Preston Circus", "long": "-0.1401634664", "naptanCode": "briadmd", "lat": "50.8335140914"}, {"bearing": "NE", "indicator": "adj", "street": "New England Road", "name": "York Grove", "long": "-0.1453870678", "naptanCode": "bridwga", "lat": "50.8321492697"}, {"bearing": "W", "indicator": "W-bound", "street": "Carden Avenue", "name": "Bottom of Carden Avenue", "long": "-0.1528907722", "naptanCode": "brijwgj", "lat": "50.856470304"}, {"bearing": "SW", "indicator": "adj", "street": "Carden Avenue", "name": "Graham Avenue", "long": "-0.1491281018", "naptanCode": "briajta", "lat": "50.856761428"}, {"bearing": "S", "indicator": "opp", "street": "Ditchling Road", "name": "Surrenden Road East End", "long": "-0.1347250694", "naptanCode": "brijwag", "lat": "50.8530784823"}, {"bearing": "S", "indicator": "opp", "street": "Ditchling Road", "name": "Friar Road", "long": "-0.1350796044", "naptanCode": "brijgtm", "lat": "50.8506018935"}, {"bearing": "S", "indicator": "opp", "street": "Ditchling Road", "name": "Varndean High School", "long": "-0.1352706186", "naptanCode": "briawmp", "lat": "50.8486623107"}, {"bearing": "S", "indicator": "opp", "street": "Ditchling Road", "name": "Osborne Road", "long": "-0.135388699", "naptanCode": "brijpwg", "lat": "50.8471262774"}, {"bearing": "S", "indicator": "adj", "street": "Ditchling Road", "name": "St Matthias Church", "long": "-0.1350503303", "naptanCode": "bridtgd", "lat": "50.84563691"}, {"bearing": "S", "indicator": "S-bound", "street": "Ditchling Road", "name": "Fiveways", "long": "-0.1344401838", "naptanCode": "brijgat", "lat": "50.8431269081"}, {"bearing": "S", "indicator": "opp", "street": "Ditchling Road", "name": "Semley Road", "long": "-0.1340310428", "naptanCode": "briawgj", "lat": "50.8412766568"}, {"bearing": "S", "indicator": "opp", "street": "Ditchling Road", "name": "Rugby Road East", "long": "-0.1334765513", "naptanCode": "brijawm", "lat": "50.839154267"}, {"bearing": "S", "indicator": "opp", "street": "Ditchling Road", "name": "Springfield Road East", "long": "-0.1335154388", "naptanCode": "brijamg", "lat": "50.8378238212"}, {"bearing": "S", "indicator": "adj", "street": "Ditchling Road", "name": "Prince's Crescent", "long": "-0.1335201418", "naptanCode": "brijdpt", "lat": "50.8359262247"}, {"bearing": "SW", "indicator": "SW-bound", "street": "Stanford Avenue", "name": "Fiveways", "long": "-0.1349204737", "naptanCode": "brijmpg", "lat": "50.8428377955"}, {"bearing": "SW", "indicator": "opp", "street": "Stanford Avenue", "name": "Cleveland Road", "long": "-0.1374991003", "naptanCode": "briawgp", "lat": "50.8408644042"}, {"bearing": "SW", "indicator": "adj", "street": "Stanford Avenue", "name": "Rugby Road West", "long": "-0.1401326009", "naptanCode": "briamtp", "lat": "50.8385770519"}, {"bearing": "SE", "indicator": "adj", "street": "Dyke Road", "name": "Church of the Good Shepherd", "long": "-0.1579779051", "naptanCode": "brijamp", "lat": "50.8413154639"}, {"bearing": "SE", "indicator": "opp", "street": "Dyke Road", "name": "Onslow Road", "long": "-0.1595568085", "naptanCode": "briamjm", "lat": "50.8441464082"}, {"bearing": "SE", "indicator": "opp", "street": "Dyke Road", "name": "Top of Woodruff Avenue", "long": "-0.1599381369", "naptanCode": "bridtdj", "lat": "50.8452856253"}, {"bearing": "SE", "indicator": "adj", "street": "Dyke Road Avenue", "name": "Hazeldene Meads", "long": "-0.1615655961", "naptanCode": "brijpgp", "lat": "50.848333153"}, {"bearing": "SE", "indicator": "opp", "street": "Dyke Road Avenue", "name": "Tongdean Road", "long": "-0.1640460729", "naptanCode": "bridawt", "lat": "50.8506476086"}, {"bearing": "SE", "indicator": "opp", "street": "Dyke Road Avenue", "name": "Hill Brow South", "long": "-0.1666225623", "naptanCode": "brijpad", "lat": "50.8526937086"}, {"bearing": "SE", "indicator": "opp", "street": "Friar Road", "name": "Friar Crescent", "long": "-0.1403400506", "naptanCode": "bridwmw", "lat": "50.8530062305"}, {"bearing": "NE", "indicator": "adj", "street": "Surrenden Road", "name": "Surrenden Close", "long": "-0.1401769659", "naptanCode": "briajad", "lat": "50.8535342578"}, {"bearing": "SW", "indicator": "adj", "street": "Surrenden Road", "name": "Varndean College", "long": "-0.1449305422", "naptanCode": "briapmt", "lat": "50.8511816449"}, {"bearing": "S", "indicator": "adj", "street": "Surrenden Road", "name": "Surrenden Holt", "long": "-0.1464355384", "naptanCode": "brijpwa", "lat": "50.8490560771"}, {"bearing": "S", "indicator": "adj", "street": "Surrenden Road", "name": "Loder Road", "long": "-0.1461601205", "naptanCode": "brijgtg", "lat": "50.8466863641"}, {"bearing": "S", "indicator": "opp", "street": "Surrenden Road", "name": "St Marys Church", "long": "-0.1450605682", "naptanCode": "bridawd", "lat": "50.8446812834"}, {"bearing": "W", "indicator": "opp", "street": "Preston Drove", "name": "Surrenden Road South End", "long": "-0.145287835", "naptanCode": "brijgam", "lat": "50.8439654021"}, {"bearing": "S", "indicator": "S-bound", "street": "Beaconsfield Villas", "name": "Beaconsfield Villas Top", "long": "-0.1431996566", "naptanCode": "brijgtw", "lat": "50.8436084129"}, {"bearing": "S", "indicator": "adj", "street": "Beaconsfield Villas", "name": "Lucerne Road", "long": "-0.1424018897", "naptanCode": "brijpaj", "lat": "50.8418779186"}, {"bearing": "S", "indicator": "S-bound", "street": "Beaconsfield Villas", "name": "Beaconsfield Villas middle", "long": "-0.1416081087", "naptanCode": "bridmpg", "lat": "50.840048551"}, {"bearing": "S", "indicator": "S-bound", "street": "Beaconsfield Villas", "name": "Beaconsfield Villas bottom", "long": "-0.1409019597", "naptanCode": "briadwa", "lat": "50.8385173656"}, {"bearing": "W", "indicator": "W-bound", "street": "Preston Drove", "name": "Chester Terrace", "long": "-0.1409945374", "naptanCode": "briadtp", "lat": "50.8440499609"}, {"bearing": "W", "indicator": "adj", "street": "Preston Drove", "name": "Southdown Road", "long": "-0.1382239089", "naptanCode": "briamdp", "lat": "50.8437089868"}, {"bearing": "W", "indicator": "W-bound", "street": "Hollingbury Road", "name": "Fiveways", "long": "-0.1341508891", "naptanCode": "brijdmj", "lat": "50.843257187"}, {"bearing": "E", "indicator": "E-bound", "street": "Hollingbury Place", "name": "The Dip", "long": "-0.1306580118", "naptanCode": "briamtm", "lat": "50.8439297606"}, {"bearing": "S", "indicator": "S-bound", "street": "Roedale Road", "name": "Bottom of Roedale Road", "long": "-0.13070845", "naptanCode": "brijmgj", "lat": "50.8401801956"}, {"bearing": "NE", "indicator": "NE-bound", "street": "Upper Hollingdean Road", "name": "Rugby Road East", "long": "-0.1332086977", "naptanCode": "bridwtp", "lat": "50.8398155149"}, {"bearing": "NE", "indicator": "NE-bound", "street": "Davey Drive", "name": "Bottom of Davey Drive", "long": "-0.1295412428", "naptanCode": "brijamw", "lat": "50.8395319277"}, {"bearing": "N", "indicator": "opp", "street": "Davey Drive", "name": "Waverley Crescent", "long": "-0.1273491103", "naptanCode": "briapwt", "lat": "50.8403601552"}, {"bearing": "NE", "indicator": "adj", "street": "Davey Drive", "name": "The Crossway", "long": "-0.1260670704", "naptanCode": "brijtdt", "lat": "50.8425790014"}, {"bearing": "NE", "indicator": "opp", "street": "The Crestway", "name": "Tavistock Down", "long": "-0.1248099948", "naptanCode": "brijtpm", "lat": "50.8438179209"}, {"bearing": "NW", "indicator": "adj", "street": "Stephens Road", "name": "Mountfields", "long": "-0.1253893634", "naptanCode": "brijgwt", "lat": "50.8453111929"}, {"bearing": "SE", "indicator": "Stop K", "street": "Dyke Road", "name": "Imperial Arcade", "long": "-0.1446518933", "naptanCode": "brijwtm", "lat": "50.8241871435"}, {"bearing": "W", "indicator": "opp", "street": "Warren Road", "name": "Top of Bear Road", "long": "-0.1050124926", "naptanCode": "bridjma", "lat": "50.8352957385"}, {"bearing": "W", "indicator": "adj", "street": "Warren Road", "name": "Top of Wilson Avenue", "long": "-0.1008652118", "naptanCode": "brijpap", "lat": "50.8349494883"}, {"bearing": "W", "indicator": "opp", "street": "Bear Road", "name": "Bevendean Road", "long": "-0.1157392612", "naptanCode": "bridtad", "lat": "50.836962454"}, {"bearing": "SW", "indicator": "SW-bound", "street": "Freshfield Road", "name": "Race Hill", "long": "-0.1127384754", "naptanCode": "bridjwj", "lat": "50.8314277705"}, {"bearing": "W", "indicator": "entrance", "street": "Pankhurst Avenue", "name": "Brighton General Hospital Rear", "long": "-0.1152780668", "naptanCode": "brimpdm", "lat": "50.8293732903"}, {"bearing": "SW", "indicator": "opp", "street": "Freshfield Road", "name": "Pankhurst Avenue", "long": "-0.1140248089", "naptanCode": "bridwmg", "lat": "50.8291102037"}, {"bearing": "SW", "indicator": "adj", "street": "Queensway", "name": "Tilgate Close", "long": "-0.1170372134", "naptanCode": "bridtmd", "lat": "50.8269464104"}, {"bearing": "SW", "indicator": "adj", "street": "Queensway", "name": "Hadlow Close", "long": "-0.1188884785", "naptanCode": "brijmwd", "lat": "50.8254023759"}, {"bearing": "SW", "indicator": "opp", "street": "Sutherland Road", "name": "Evelyn Terrace", "long": "-0.1207580278", "naptanCode": "bridamt", "lat": "50.8233999262"}, {"bearing": "SW", "indicator": "opp", "street": "Sutherland Road", "name": "Freshfield Way", "long": "-0.1231199375", "naptanCode": "briatwt", "lat": "50.8211535457"}, {"bearing": "SW", "indicator": "opp", "street": "Freshfield Road", "name": "St Lukes Terrace", "long": "-0.11918074", "naptanCode": "briawpm", "lat": "50.8269630048"}, {"bearing": "SW", "indicator": "opp", "street": "Freshfield Road", "name": "Glynde Road", "long": "-0.1175708552", "naptanCode": "brimtjg", "lat": "50.8278004345"}, {"bearing": "W", "indicator": "W-bound", "street": "Edward Street", "name": "Devonshire Place", "long": "-0.1306714207", "naptanCode": "bridtmw", "lat": "50.8219133654"}, {"bearing": "W", "indicator": "opp", "street": "Edward Street", "name": "Law Courts", "long": "-0.1350457662", "naptanCode": "briatdg", "lat": "50.8225949595"}, {"bearing": "W", "indicator": "opp", "street": "Eastern Road", "name": "Lidl Superstore", "long": "-0.1078080265", "naptanCode": "brijgad", "lat": "50.8163912926"}, {"bearing": "SW", "indicator": "SW-bound", "street": "Arundel Road", "name": "Arundel Road", "long": "-0.1067108864", "naptanCode": "bridmdj", "lat": "50.817191921"}, {"bearing": "W", "indicator": "W-bound", "street": "Roedean Road", "name": "Roedean Road", "long": "-0.1061830325", "naptanCode": "briatma", "lat": "50.8172553017"}, {"bearing": "S", "indicator": "Stop M", "street": "Tisbury Road", "name": "Eaton Road", "long": "-0.1690554107", "naptanCode": "brijdwp", "lat": "50.8301128526"}, {"bearing": "E", "indicator": "Stop K", "street": "Blatchington Road", "name": "George Street", "long": "-0.1720449766", "naptanCode": "briatmp", "lat": "50.8310141366"}, {"bearing": "E", "indicator": "Stop G", "street": "Blatchington Road", "name": "Sackville Road", "long": "-0.1770535285", "naptanCode": "briawtg", "lat": "50.8318569746"}, {"bearing": "E", "indicator": "E-bound", "street": "Portland Road", "name": "Westbourne Street", "long": "-0.1813896046", "naptanCode": "brijapg", "lat": "50.8328330133"}, {"bearing": "E", "indicator": "adj", "street": "Portland Road", "name": "Scott Road", "long": "-0.1859966809", "naptanCode": "brijtja", "lat": "50.8334173831"}, {"bearing": "E", "indicator": "adj", "street": "Portland Road", "name": "School Road", "long": "-0.1896017061", "naptanCode": "brijawa", "lat": "50.8338421252"}, {"bearing": "E", "indicator": "opp", "street": "Portland Road", "name": "Coleman Avenue", "long": "-0.1930627809", "naptanCode": "brijatp", "lat": "50.8343184879"}, {"bearing": "E", "indicator": "adj", "street": "Portland Road", "name": "Olive Road", "long": "-0.1968967772", "naptanCode": "bridjmj", "lat": "50.8347015819"}, {"bearing": "E", "indicator": "Stop N", "street": "Portland Road", "name": "Glebe Villas", "long": "-0.2009413279", "naptanCode": "bridtaw", "lat": "50.8351507522"}, {"bearing": "E", "indicator": "Stop G", "street": "Portland Road", "name": "Portslade Railway Station", "long": "-0.2051742761", "naptanCode": "bridada", "lat": "50.8355037506"}, {"bearing": "S", "indicator": "adj", "street": "Olive Road", "name": "Isabel Crescent", "long": "-0.1978480865", "naptanCode": "bridjad", "lat": "50.8369197238"}, {"bearing": "S", "indicator": "Stop J", "street": "Boundary Road", "name": "Portslade Railway Station", "long": "-0.2060306827", "naptanCode": "brimadm", "lat": "50.8350222736"}, {"bearing": "S", "indicator": "opp", "street": "Sackville Road", "name": "Coleridge Street", "long": "-0.1772358689", "naptanCode": "bridwdt", "lat": "50.8359249602"}, {"bearing": "S", "indicator": "Stop T", "street": "Sackville Road", "name": "Blatchington Road", "long": "-0.1776723785", "naptanCode": "briamwp", "lat": "50.8312820553"}, {"bearing": "S", "indicator": "adj", "street": "Hangleton Road", "name": "Martin Road", "long": "-0.2019880852", "naptanCode": "brimaga", "lat": "50.8422808538"}, {"bearing": "SE", "indicator": "SE-bound", "street": "Court Farm Road", "name": "Court Farm Road", "long": "-0.1819518559", "naptanCode": "bridapw", "lat": "50.8465031339"}, {"bearing": "SE", "indicator": "adj", "street": "Nevill Road", "name": "Nevill Way", "long": "-0.1795628292", "naptanCode": "brimagm", "lat": "50.8458363256"}, {"bearing": "S", "indicator": "adj", "street": "Nevill Road", "name": "Waitrose", "long": "-0.1773787108", "naptanCode": "bridpmp", "lat": "50.8431940663"}, {"bearing": "S", "indicator": "adj", "street": "Nevill Road", "name": "Greyhound Stadium", "long": "-0.1778706203", "naptanCode": "briapgj", "lat": "50.8418706898"}, {"bearing": "S", "indicator": "S-bound", "street": "Sackville Road", "name": "Hove Park Tavern", "long": "-0.1775017713", "naptanCode": "bridamg", "lat": "50.8382135041"}, {"bearing": "W", "indicator": "nr", "street": "Martin Road", "name": "Old School Place", "long": "-0.1988036765", "naptanCode": "briamdw", "lat": "50.8430861277"}, {"bearing": "W", "indicator": "W-bound", "street": "Martin Road", "name": "Martin Road terminus", "long": "-0.2003946521", "naptanCode": "bridjtd", "lat": "50.8419774827"}, {"bearing": "S", "indicator": "S-bound", "street": "Godwin Road", "name": "Godwin Road middle", "long": "-0.2012930769", "naptanCode": "brimagp", "lat": "50.8407771979"}, {"bearing": "NE", "indicator": "NE-bound", "street": "Bellingham Crescent", "name": "St Richards Church", "long": "-0.2016309025", "naptanCode": "brimagt", "lat": "50.8393793995"}, {"bearing": "SE", "indicator": "SE-bound", "street": "Bellingham Crescent", "name": "Bellingham Crescent", "long": "-0.1996134476", "naptanCode": "brijgjt", "lat": "50.8390245117"}, {"bearing": "S", "indicator": "S-bound", "street": "Olive Road", "name": "Bottom of Olive Road", "long": "-0.198198447", "naptanCode": "brimagw", "lat": "50.8351983567"}, {"bearing": "E", "indicator": "o/s", "street": "Western Road", "name": "Waitrose", "long": "-0.152108467", "naptanCode": "brimgtj", "lat": "50.8248541232"}, {"bearing": "E", "indicator": "adj", "street": "Western Road", "name": "Waitrose", "long": "-0.1517253265", "naptanCode": "bridgag", "lat": "50.824848053"}, {"bearing": "E", "indicator": "Stop K", "street": "New Church Road", "name": "Boundary Road", "long": "-0.2065336867", "naptanCode": "brimajw", "lat": "50.8330154335"}, {"bearing": "S", "indicator": "adj", "street": "Shirley Drive", "name": "Shirley Road", "long": "-0.165606818", "naptanCode": "brimamp", "lat": "50.8383868171"}, {"bearing": "S", "indicator": "S-bound", "street": "The Drive", "name": "Old Shoreham Road", "long": "-0.1659463931", "naptanCode": "brijdjd", "lat": "50.8369711563"}, {"bearing": "SW", "indicator": "Stop D", "street": "Upper Drive", "name": "Cardinal Newman School", "long": "-0.1596303566", "naptanCode": "bridtat", "lat": "50.8368626933"}, {"bearing": "SE", "indicator": "opp", "street": "Dyke Road", "name": "Clifton Hill", "long": "-0.1459608742", "naptanCode": "brijmaw", "lat": "50.8269870122"}, {"bearing": "SE", "indicator": "SE-bound", "street": "Dyke Road", "name": "Homelees House", "long": "-0.1465502399", "naptanCode": "briamgt", "lat": "50.8289570056"}, {"bearing": "W", "indicator": "adj", "street": "New Church Road", "name": "St Keyna Avenue North", "long": "-0.2030251094", "naptanCode": "brimamt", "lat": "50.8322959108"}, {"bearing": "E", "indicator": "E-bound", "street": "New Church Road", "name": "Brittany Court", "long": "-0.1978913937", "naptanCode": "brijdwj", "lat": "50.8317400544"}, {"bearing": "E", "indicator": "opp", "street": "New Church Road", "name": "Wish Road North", "long": "-0.1933753774", "naptanCode": "briajgp", "lat": "50.8310046725"}, {"bearing": "E", "indicator": "adj", "street": "New Church Road", "name": "Richardson Road", "long": "-0.1881644317", "naptanCode": "brijtwg", "lat": "50.8302493298"}, {"bearing": "E", "indicator": "opp", "street": "New Church Road", "name": "Westbourne Villas North", "long": "-0.1831101214", "naptanCode": "bridwpa", "lat": "50.8294871994"}, {"bearing": "E", "indicator": "E-bound", "street": "Elm Drive", "name": "Holmes Avenue", "long": "-0.1887630246", "naptanCode": "brijtjp", "lat": "50.8400976797"}, {"bearing": "E", "indicator": "E-bound", "street": "Elm Drive", "name": "Elm Drive Shops", "long": "-0.1934945837", "naptanCode": "bridgta", "lat": "50.8400541263"}, {"bearing": "S", "indicator": "S-bound", "street": "Elm Drive", "name": "Maytree Walk", "long": "-0.1944714801", "naptanCode": "briatpj", "lat": "50.8419759005"}, {"bearing": "SE", "indicator": "adj", "street": "Nevill Avenue", "name": "Fallowfield Crescent", "long": "-0.1904883197", "naptanCode": "bridpam", "lat": "50.8439647372"}, {"bearing": "E", "indicator": "E-bound", "street": "Nevill Avenue", "name": "Bishop Hannington Church", "long": "-0.1863231156", "naptanCode": "bridpwd", "lat": "50.8429467333"}, {"bearing": "E", "indicator": "E-bound", "street": "Nevill Avenue", "name": "Nevill Avenue", "long": "-0.1786114059", "naptanCode": "brimpdt", "lat": "50.8414505623"}, {"bearing": "NE", "indicator": "NE-bound", "street": "Nevill Way", "name": "Nevill Way", "long": "-0.1798178778", "naptanCode": "bridgtj", "lat": "50.8462180381"}, {"bearing": "SE", "indicator": "adj", "street": "Goldstone Crescent", "name": "Edward Avenue", "long": "-0.1811377356", "naptanCode": "brimapa", "lat": "50.8484420647"}, {"bearing": "SW", "indicator": "SW-bound", "street": "Queen Victoria Avenue", "name": "Bottom of Queen Victoria Avenue", "long": "-0.1818621266", "naptanCode": "briatpa", "lat": "50.849541586"}, {"bearing": "W", "indicator": "adj", "street": "Queen Victoria Avenue", "name": "Goldstone Valley Shops", "long": "-0.179049195", "naptanCode": "brimapd", "lat": "50.8502711694"}, {"bearing": "SE", "indicator": "adj", "street": "Goldstone Crescent", "name": "Elizabeth Avenue", "long": "-0.1779901721", "naptanCode": "bridaga", "lat": "50.8471878035"}, {"bearing": "SE", "indicator": "adj", "street": "Goldstone Crescent", "name": "Woodland Avenue", "long": "-0.1752995219", "naptanCode": "briagpm", "lat": "50.8466061333"}, {"bearing": "SE", "indicator": "opp", "street": "Goldstone Crescent", "name": "Hove Park North", "long": "-0.1718408251", "naptanCode": "brijwdg", "lat": "50.8449601105"}, {"bearing": "E", "indicator": "opp", "street": "Woodruff Avenue", "name": "Hove Park Way", "long": "-0.1693233252", "naptanCode": "bridgwm", "lat": "50.8446778051"}, {"bearing": "SE", "indicator": "SE-bound", "street": "Shirley Drive", "name": "Woodruff Avenue", "long": "-0.1647402342", "naptanCode": "bridjaw", "lat": "50.8441830962"}, {"bearing": "S", "indicator": "S-bound", "street": "Shirley Drive", "name": "The Droveway", "long": "-0.1649575832", "naptanCode": "brijwga", "lat": "50.8419021244"}, {"bearing": "E", "indicator": "adj", "street": "Cromwell Road", "name": "Wilbury Villas", "long": "-0.1639944443", "naptanCode": "brimatm", "lat": "50.8327853737"}, {"bearing": "E", "indicator": "adj", "street": "Davigdor Road", "name": "Lyon Close", "long": "-0.1590857452", "naptanCode": "brijtpa", "lat": "50.8319345563"}, {"bearing": "E", "indicator": "adj", "street": "Davigdor Road", "name": "Montefiore Road South", "long": "-0.1547697615", "naptanCode": "bridgpg", "lat": "50.8311828453"}, {"bearing": "E", "indicator": "E-bound", "street": "Goldsmid Road", "name": "Osmond Road", "long": "-0.1515481188", "naptanCode": "bridpgp", "lat": "50.8307720926"}, {"bearing": "W", "indicator": "W-bound", "street": "Elm Grove", "name": "Bottom of Elm Grove", "long": "-0.1287134659", "naptanCode": "bridtgp", "lat": "50.8318200355"}, {"bearing": "W", "indicator": "opp", "street": "Elm Grove", "name": "De Montfort Road", "long": "-0.1259968254", "naptanCode": "briagpw", "lat": "50.8315695691"}, {"bearing": "W", "indicator": "opp", "street": "Elm Grove", "name": "Bonchurch Road", "long": "-0.1223864731", "naptanCode": "briatap", "lat": "50.8312956638"}, {"bearing": "W", "indicator": "W-bound", "street": "Elm Grove", "name": "Queens Park Junction", "long": "-0.1181259581", "naptanCode": "briagmg", "lat": "50.8312989588"}, {"bearing": "W", "indicator": "adj", "street": "Elm Grove", "name": "General Hospital", "long": "-0.1157734098", "naptanCode": "bridwjd", "lat": "50.8315307946"}, {"bearing": "W", "indicator": "W-bound", "street": "Elm Grove", "name": "Race Hill", "long": "-0.1132377911", "naptanCode": "briajda", "lat": "50.8317236471"}, {"bearing": "W", "indicator": "adj", "street": "Roedean Road", "name": "Fire Station", "long": "-0.1028209515", "naptanCode": "briapat", "lat": "50.8164901571"}, {"bearing": "W", "indicator": "opp", "street": "Roedean Road", "name": "Roedean Crescent", "long": "-0.0967893632", "naptanCode": "briawdt", "lat": "50.8150428281"}, {"bearing": "W", "indicator": "W-bound", "street": "Roedean Road", "name": "Roedean Golf Course", "long": "-0.0927281526", "naptanCode": "brijadj", "lat": "50.8140231483"}, {"bearing": "S", "indicator": "S-bound", "street": "Manor Road", "name": "Bristol Gardens", "long": "-0.1110637875", "naptanCode": "brijadp", "lat": "50.818737472"}, {"bearing": "S", "indicator": "adj", "street": "Manor Road", "name": "Manor Gardens", "long": "-0.1105083847", "naptanCode": "briajgm", "lat": "50.8198347078"}, {"bearing": "E", "indicator": "adj", "street": "Donald Hall Road", "name": "Cowfold Road", "long": "-0.1109218702", "naptanCode": "bridmtm", "lat": "50.8215502178"}, {"bearing": "NW", "indicator": "NW-bound", "street": "Manor Hill", "name": "Top of Manor Hill", "long": "-0.1143222714", "naptanCode": "bridmtj", "lat": "50.8280717392"}, {"bearing": "E", "indicator": "opp", "street": "Cromwell Road", "name": "Eaton Gardens", "long": "-0.1680221793", "naptanCode": "brijgdw", "lat": "50.8332893859"}, {"bearing": "N", "indicator": "N-bound", "street": "Goldstone Villas", "name": "Hove Railway Station", "long": "-0.1711760603", "naptanCode": "briatmd", "lat": "50.834714904"}, {"bearing": "N", "indicator": "adj", "street": "Goldstone Villas", "name": "Livingstone Road", "long": "-0.1717952926", "naptanCode": "bridjdj", "lat": "50.8330427938"}, {"bearing": "SE", "indicator": "SE-bound", "street": "Shirley Drive", "name": "Tredcroft Road", "long": "-0.1668174993", "naptanCode": "bridmdt", "lat": "50.8466350496"}, {"bearing": "SE", "indicator": "opp", "street": "Shirley Drive", "name": "Shirley Avenue", "long": "-0.1704876555", "naptanCode": "brijpjm", "lat": "50.8472322801"}, {"bearing": "SE", "indicator": "SE-bound", "street": "Shirley Drive", "name": "Woodland Parade", "long": "-0.1722167925", "naptanCode": "brijdgp", "lat": "50.8487883032"}, {"bearing": "S", "indicator": "adj", "street": "Woodland Drive", "name": "Deanway", "long": "-0.173727256", "naptanCode": "brijwdt", "lat": "50.8508535146"}, {"bearing": "SW", "indicator": "adj", "street": "Woodland Drive", "name": "Hill Brow North", "long": "-0.1717447994", "naptanCode": "briataw", "lat": "50.8554092238"}, {"bearing": "W", "indicator": "W-bound", "street": "Buckingham Road", "name": "Buckingham Road", "long": "-0.1457626119", "naptanCode": "bridgmd", "lat": "50.8266151188"}, {"bearing": "E", "indicator": "E-bound", "street": "Woodruff Avenue", "name": "Shirley Drive", "long": "-0.1646087587", "naptanCode": "briamgj", "lat": "50.8449994511"}, {"bearing": "W", "indicator": "W-bound", "street": "King George VI Drive", "name": "Top of Woodland Avenue", "long": "-0.1754050169", "naptanCode": "brimpjd", "lat": "50.8559162028"}, {"bearing": "SW", "indicator": "SW-bound", "street": "King George VI Drive", "name": "King George VI Drive", "long": "-0.1779966812", "naptanCode": "brimpjg", "lat": "50.852853899"}, {"bearing": "SE", "indicator": "adj", "street": "Hartington Road", "name": "St Martins School", "long": "-0.123751477", "naptanCode": "briagma", "lat": "50.8351489515"}, {"bearing": "SE", "indicator": "opp", "street": "Hartington Road", "name": "Bernard Road", "long": "-0.1206104617", "naptanCode": "brijgag", "lat": "50.8341450554"}, {"bearing": "S", "indicator": "S-bound", "street": "Ryde Road", "name": "Ryde Road", "long": "-0.1173125681", "naptanCode": "briagap", "lat": "50.8324550187"}, {"bearing": "SW", "indicator": "SW-bound", "street": "Queens Park Road", "name": "Queens Park Junction", "long": "-0.1189541576", "naptanCode": "brimawp", "lat": "50.8311864046"}, {"bearing": "SW", "indicator": "opp", "street": "Queens Park Road", "name": "Baxter Street", "long": "-0.1205553601", "naptanCode": "bridwjm", "lat": "50.8302139099"}, {"bearing": "SW", "indicator": "SW-bound", "street": "Queens Park Road", "name": "The Hanover", "long": "-0.1222306999", "naptanCode": "briadpw", "lat": "50.8291616434"}, {"bearing": "SW", "indicator": "adj", "street": "Queens Park Road", "name": "Pepper Pot", "long": "-0.1250526364", "naptanCode": "bridwjt", "lat": "50.8274892338"}, {"bearing": "SW", "indicator": "SW-bound", "street": "Queens Park Road", "name": "Albion Hill", "long": "-0.1273405282", "naptanCode": "bridtwm", "lat": "50.8256732783"}, {"bearing": "W", "indicator": "opp", "street": "Queens Park Terrace", "name": "St Lukes Church", "long": "-0.1243881828", "naptanCode": "brimtjp", "lat": "50.8274155957"}, {"bearing": "SE", "indicator": "SE-bound", "street": "Queens Park Road", "name": "Egremont Gate", "long": "-0.1285314935", "naptanCode": "briadat", "lat": "50.82358786"}, {"bearing": "W", "indicator": "W-bound", "street": "Upper Gloucester Road", "name": "Upper Gloucester Road", "long": "-0.1441340235", "naptanCode": "briatat", "lat": "50.8275785273"}, {"bearing": "SW", "indicator": "o/s 62", "street": "Baden Road", "name": "Carlyle Avenue", "long": "-0.11343006", "naptanCode": "brimdad", "lat": "50.839281488"}, {"bearing": "NW", "indicator": "NW-bound", "street": "Eastbourne Road", "name": "Eastbourne Road", "long": "-0.112679668", "naptanCode": "briamaj", "lat": "50.8399258921"}, {"bearing": "SW", "indicator": "SW-bound", "street": "Baden Road", "name": "Baden Road", "long": "-0.1146472623", "naptanCode": "brimdag", "lat": "50.8379790889"}, {"bearing": "NW", "indicator": "Opp", "street": "Coombe Road", "name": "Coombe Road School", "long": "-0.1188866241", "naptanCode": "brimdaj", "lat": "50.8395764582"}, {"bearing": "W", "indicator": "W-bound", "street": "Coombe Road", "name": "Bottom Of Coombe Road", "long": "-0.1213861882", "naptanCode": "briapdt", "lat": "50.8402912653"}, {"bearing": "W", "indicator": "opp", "street": "Brentwood Road", "name": "Lynchet Close", "long": "-0.1274206049", "naptanCode": "brijawt", "lat": "50.8470885917"}, {"bearing": "W", "indicator": "opp", "street": "Brentwood Road", "name": "Brentwood Crescent", "long": "-0.1309748869", "naptanCode": "bridmta", "lat": "50.8477301769"}, {"bearing": "W", "indicator": "opp", "street": "Brentwood Road", "name": "Burstead Close", "long": "-0.132519704", "naptanCode": "briajaj", "lat": "50.8481776186"}, {"bearing": "SE", "indicator": "adj", "street": "Stanmer Villas", "name": "Quarry Bank Road", "long": "-0.1323398681", "naptanCode": "briajpa", "lat": "50.845566569"}, {"bearing": "SE", "indicator": "SE-bound", "street": "Stanmer Villas", "name": "Hollingbury Crescent", "long": "-0.1319994526", "naptanCode": "bridwgt", "lat": "50.8441311213"}, {"bearing": "N", "indicator": "N-bound", "street": "Brighton Marina", "name": "Marina Village", "long": "-0.104221248", "naptanCode": "bridgpt", "lat": "50.8120610108"}, {"bearing": "NW", "indicator": "Stop W", "street": "Southover Street", "name": "Hanover Street", "long": "-0.1316483191", "naptanCode": "bridgap", "lat": "50.8298075175"}, {"bearing": "NW", "indicator": "opp", "street": "Southover Street", "name": "Washington Street", "long": "-0.129719502", "naptanCode": "briajpt", "lat": "50.8286793746"}, {"bearing": "NE", "indicator": "opp", "street": "Hove Street", "name": "Hove Manor", "long": "-0.1797173459", "naptanCode": "brimtmj", "lat": "50.8272668324"}, {"bearing": "N", "indicator": "N-bound", "street": "Queens Park Terrace", "name": "Cuthbert Road", "long": "-0.1219295331", "naptanCode": "brijmdp", "lat": "50.8253434533"}, {"bearing": "SE", "indicator": "SE-bound", "street": "Down Terrace", "name": "Freshfield Inn", "long": "-0.1185085461", "naptanCode": "brimdat", "lat": "50.8277885816"}, {"bearing": "W", "indicator": "W-bound", "street": "Queens Park Terrace", "name": "Queens Park Terrace", "long": "-0.1229136385", "naptanCode": "brimdaw", "lat": "50.8270051465"}, {"bearing": "W", "indicator": "opp", "street": "Pankhurst Avenue", "name": "Clayton Road", "long": "-0.1168456402", "naptanCode": "brimpmw", "lat": "50.8292367201"}, {"bearing": "NW", "indicator": "opp", "street": "Southover Street", "name": "Finsbury Road", "long": "-0.1275265439", "naptanCode": "briawdj", "lat": "50.8274120535"}, {"bearing": "W", "indicator": "opp", "street": "Pankhurst Avenue", "name": "Hallett Road", "long": "-0.1195354104", "naptanCode": "briawga", "lat": "50.8290912435"}, {"bearing": "W", "indicator": "W-bound", "street": "Pankhurst Avenue", "name": "The Hanover", "long": "-0.121687336", "naptanCode": "bridwag", "lat": "50.8289010709"}, {"bearing": "SE", "indicator": "Stop A", "street": "North Street", "name": "North Street", "long": "-0.1395102325", "naptanCode": "brimdga", "lat": "50.8224414104"}, {"bearing": "SE", "indicator": "Stop B", "street": "North Street", "name": "North Street", "long": "-0.139080363", "naptanCode": "brimdgd", "lat": "50.8221827291"}, {"bearing": "SE", "indicator": "Stop C", "street": "North Street", "name": "North Street", "long": "-0.1388299565", "naptanCode": "brimdgj", "lat": "50.8220528218"}, {"bearing": "N", "indicator": "Stop G", "street": "Old Steine", "name": "Old Steine", "long": "-0.1372157018", "naptanCode": "brimjpj", "lat": "50.8215863613"}, {"bearing": "S", "indicator": "Stop H", "street": "Old Steine", "name": "Old Steine", "long": "-0.1367141913", "naptanCode": "brimdgm", "lat": "50.8213445144"}, {"bearing": "W", "indicator": "Stop L", "street": "Marine Parade", "name": "Sea Life Centre", "long": "-0.1351592942", "naptanCode": "brimdgp", "lat": "50.8197457638"}, {"bearing": "E", "indicator": "adj", "street": "Grand Junction Road", "name": "Pool Valley", "long": "-0.1381798174", "naptanCode": "brimtmw", "lat": "50.8194792355"}, {"bearing": "W", "indicator": "W-bound", "street": "Meadowview", "name": "Jewish Cemetery", "long": "-0.1112932724", "naptanCode": "brimdgt", "lat": "50.8394357809"}, {"bearing": "W", "indicator": "W-bound", "street": "Meadowview", "name": "Meadowview", "long": "-0.1039842614", "naptanCode": "bridjpd", "lat": "50.8385887256"}, {"bearing": "SW", "indicator": "SW-bound", "street": "Queensway", "name": "Top of Queensway", "long": "-0.11455295", "naptanCode": "brimdgw", "lat": "50.8279855307"}, {"bearing": "W", "indicator": "opp", "street": "Meadowview", "name": "Ghyllside", "long": "-0.1085042135", "naptanCode": "brijpdt", "lat": "50.8388599624"}, {"bearing": "W", "indicator": "opp", "street": "Meadowview", "name": "Dawlish Close", "long": "-0.1059678069", "naptanCode": "bridpmt", "lat": "50.8387108844"}, {"bearing": "S", "indicator": "S-bound", "street": "Roedale Road", "name": "Hollingdean Street", "long": "-0.1305453225", "naptanCode": "brimdja", "lat": "50.842129215"}, {"bearing": "E", "indicator": "E-bound", "street": "Eaton Road", "name": "Eaton Road", "long": "-0.1684487865", "naptanCode": "bridmda", "lat": "50.8303731399"}, {"bearing": "E", "indicator": "adj", "street": "Eaton Road", "name": "Cricket Ground", "long": "-0.1633976289", "naptanCode": "brimdjd", "lat": "50.8295382534"}, {"bearing": "E", "indicator": "adj", "street": "Lansdowne Road", "name": "Law Courts", "long": "-0.1619750555", "naptanCode": "briaptp", "lat": "50.8285175481"}, {"bearing": "E", "indicator": "E-bound", "street": "Queen Victoria Avenue", "name": "Top of Queen Victoria Avenue", "long": "-0.1762961277", "naptanCode": "brijmjw", "lat": "50.8501921934"}, {"bearing": "N", "indicator": "adj", "street": "Woodland Avenue", "name": "Sandringham Drive", "long": "-0.1760470327", "naptanCode": "brimdjg", "lat": "50.8518431295"}, {"bearing": "NE", "indicator": "opp", "street": "Sandringham Drive", "name": "Queen Mary Avenue", "long": "-0.1775263421", "naptanCode": "brijwdj", "lat": "50.8521630366"}, {"bearing": "NE", "indicator": "NE-bound", "street": "Godwin Road", "name": "Martin Road", "long": "-0.2007869715", "naptanCode": "bridajw", "lat": "50.842487177"}, {"bearing": "SE", "indicator": "adj", "street": "Down Terrace", "name": "Stonehurst Court", "long": "-0.120712712", "naptanCode": "brimdjm", "lat": "50.8284176993"}, {"bearing": "S", "indicator": "Stop N", "street": "Queens Road", "name": "Clock Tower", "long": "-0.1433046188", "naptanCode": "brijgpm", "lat": "50.8237879704"}, {"bearing": "", "indicator": "inside", "street": "Blatchington Mill School Grounds", "name": "Blatchington Mill School Grounds", "long": "-0.182847943", "naptanCode": "briamwg", "lat": "50.8446464168"}, {"bearing": "S", "indicator": "S-bound", "street": "Selborne Road", "name": "Selborne Road", "long": "-0.165136776", "naptanCode": "brimtmd", "lat": "50.8279197779"}, {"bearing": "S", "indicator": "adj", "street": "Grand Avenue", "name": "King's House", "long": "-0.1690174392", "naptanCode": "brimpjw", "lat": "50.8249139086"}, {"bearing": "N", "indicator": "Stop J", "street": "Goldstone Villas", "name": "George Street", "long": "-0.1725695438", "naptanCode": "brimdjw", "lat": "50.8314000897"}, {"bearing": "E", "indicator": "o/s", "street": "King's Road", "name": "Thistle Hotel", "long": "-0.1402760723", "naptanCode": "brimpga", "lat": "50.8199623628"}, {"bearing": "W", "indicator": "Stop F", "street": "Trafalgar Street", "name": "Trafalgar Street", "long": "-0.1384013036", "naptanCode": "briawtd", "lat": "50.8281886895"}, {"bearing": "S", "indicator": "S-bound", "street": "Gloucester Place Bus Lane", "name": "North Road East", "long": "-0.1358964535", "naptanCode": "brimdma", "lat": "50.8254775542"}, {"bearing": "N", "indicator": "Stop G", "street": "Frederick Place", "name": "Brighton Station", "long": "-0.1406821752", "naptanCode": "bridptm", "lat": "50.8283239982"}, {"bearing": "E", "indicator": "Stop A", "street": "Queen's Road", "name": "Brighton Station", "long": "-0.141494921", "naptanCode": "briajgd", "lat": "50.8285977675"}, {"bearing": "E", "indicator": "Stop B", "street": "Queen's Road", "name": "Brighton Station", "long": "-0.1415548996", "naptanCode": "briajdj", "lat": "50.8285177797"}, {"bearing": "E", "indicator": "Stop C", "street": "Queen's Road", "name": "Brighton Station", "long": "-0.141570519", "naptanCode": "briajdm", "lat": "50.8284820538"}, {"bearing": "S", "indicator": "Stop G", "street": "Frederick Place", "name": "Brighton Station", "long": "-0.1407996345", "naptanCode": "brimpgd", "lat": "50.8282269396"}, {"bearing": "S", "indicator": "Stop D", "street": "Queen's Road", "name": "Brighton Station", "long": "-0.14143869", "naptanCode": "briajdp", "lat": "50.8278683812"}, {"bearing": "N", "indicator": "Stop R", "street": "Gloucester Place", "name": "St Peters Church", "long": "-0.1353487961", "naptanCode": "briajdt", "lat": "50.8271056576"}, {"bearing": "S", "indicator": "Stop L", "street": "York Place", "name": "St Peters Church", "long": "-0.1353036664", "naptanCode": "brimdmd", "lat": "50.8282381443"}, {"bearing": "S", "indicator": "nr", "street": "Queen's Road", "name": "North Road", "long": "-0.1418977045", "naptanCode": "brimpgj", "lat": "50.8266795304"}, {"bearing": "E", "indicator": "E-bound", "street": "Ellen Street", "name": "Ellen Street", "long": "-0.1720296348", "naptanCode": "brijgjg", "lat": "50.8343145736"}, {"bearing": "S", "indicator": "Stop Q", "street": "Ditchling Road", "name": "Open Market", "long": "-0.1340623355", "naptanCode": "brimdmg", "lat": "50.8315909372"}, {"bearing": "W", "indicator": "W-bound", "street": "Union Road", "name": "Open Market", "long": "-0.1334118492", "naptanCode": "bridtdt", "lat": "50.8318773229"}, {"bearing": "E", "indicator": "opp", "street": "Western Road", "name": "Norfolk Square", "long": "-0.1561194214", "naptanCode": "bridtga", "lat": "50.8254032542"}, {"bearing": "E", "indicator": "nr", "street": "Western Road", "name": "Norfolk Square", "long": "-0.1560342779", "naptanCode": "brimdmj", "lat": "50.8254019083"}, {"bearing": "E", "indicator": "opp", "street": "Church Road", "name": "Palmeira Square", "long": "-0.1628950103", "naptanCode": "brimdmp", "lat": "50.8267872644"}, {"bearing": "E", "indicator": "o/s", "street": "Church Road", "name": "Palmeira Square", "long": "-0.1626810857", "naptanCode": "brimdmt", "lat": "50.8268108762"}, {"bearing": "E", "indicator": "Stop A", "street": "Church Road", "name": "Second Avenue", "long": "-0.1662708295", "naptanCode": "brimdmw", "lat": "50.8272450969"}, {"bearing": "E", "indicator": "opp", "street": "Church Road", "name": "Second Avenue", "long": "-0.1658326631", "naptanCode": "brimdpa", "lat": "50.8271932397"}, {"bearing": "E", "indicator": "Stop A", "street": "Church Road", "name": "Town Hall", "long": "-0.1706241668", "naptanCode": "brimdpd", "lat": "50.8277631338"}, {"bearing": "E", "indicator": "Stop C", "street": "Church Road", "name": "Town Hall", "long": "-0.1693376714", "naptanCode": "bridjgj", "lat": "50.8276170396"}, {"bearing": "N", "indicator": "adj", "street": "Boundary Road", "name": "St Andrews Road", "long": "-0.2080254709", "naptanCode": "bridjgp", "lat": "50.8318871731"}, {"bearing": "E", "indicator": "Stop Q", "street": "Church Road", "name": "Hove Street", "long": "-0.1778399544", "naptanCode": "brijgjw", "lat": "50.8288024203"}, {"bearing": "SW", "indicator": "Stop A", "street": "The Upper Drive", "name": "Cardinal Newman School", "long": "-0.1575485287", "naptanCode": "bridtwa", "lat": "50.837792156"}, {"bearing": "W", "indicator": "adj", "street": "Marina Way", "name": "Marina Cinema", "long": "-0.1054987294", "naptanCode": "brimpgm", "lat": "50.8124145375"}, {"bearing": "S", "indicator": "opp", "street": "Holmes Avenue", "name": "Wayfield Avenue", "long": "-0.188136262", "naptanCode": "brimdpg", "lat": "50.8405106485"}, {"bearing": "", "indicator": "o/s", "street": "Marshall Way", "name": "Polyclinic", "long": "-0.1896094588", "naptanCode": "brijtdw", "lat": "50.8424491648"}, {"bearing": "S", "indicator": "S-bound", "street": "Holmes Avenue", "name": "Bishop Hannington Church", "long": "-0.1874817129", "naptanCode": "brimdpj", "lat": "50.8427398982"}, {"bearing": "E", "indicator": "Stop H", "street": "Western Road", "name": "Churchill Square", "long": "-0.1453018481", "naptanCode": "briagjd", "lat": "50.823909681"}, {"bearing": "E", "indicator": "Stop G", "street": "Western Road", "name": "Churchill Square", "long": "-0.1456842672", "naptanCode": "briampw", "lat": "50.8239337483"}, {"bearing": "E", "indicator": "Stop F", "street": "Western Road", "name": "Churchill Square", "long": "-0.1459670002", "naptanCode": "briampt", "lat": "50.8239652237"}, {"bearing": "E", "indicator": "Stop E", "street": "Western Road", "name": "Churchill Square", "long": "-0.1462639237", "naptanCode": "briampm", "lat": "50.8239969239"}, {"bearing": "E", "indicator": "adj", "street": "Marine Parade", "name": "New Steine", "long": "-0.1317800375", "naptanCode": "briampj", "lat": "50.8193948951"}, {"bearing": "E", "indicator": "E-bound", "street": "Marine Drive", "name": "Marine Gate", "long": "-0.1056871722", "naptanCode": "briadjg", "lat": "50.8147739649"}, {"bearing": "E", "indicator": "E-bound", "street": "Marine Drive", "name": "Marine Gate Flats", "long": "-0.1032317384", "naptanCode": "brimdpm", "lat": "50.8147610412"}, {"bearing": "E", "indicator": "adj", "street": "Marine Drive", "name": "Roedean Cafe", "long": "-0.0921603482", "naptanCode": "brimdpt", "lat": "50.8126288197"}, {"bearing": "E", "indicator": "adj", "street": "Marine Drive", "name": "Roedean School", "long": "-0.0881445776", "naptanCode": "bridwtw", "lat": "50.8115467648"}, {"bearing": "NW", "indicator": "NW-bound", "street": "Stroudley Road", "name": "Fleet Street", "long": "-0.1396112804", "naptanCode": "brimjpw", "lat": "50.83132881"}, {"bearing": "NW", "indicator": "Stop Y", "street": "New England Street", "name": "New England Street", "long": "-0.1405088379", "naptanCode": "brimdpw", "lat": "50.833042931"}, {"bearing": "N", "indicator": "Stop C", "street": "London Road", "name": "London Road Shops", "long": "-0.13611716", "naptanCode": "brimdta", "lat": "50.8302747309"}, {"bearing": "N", "indicator": "Stop B", "street": "London Road", "name": "London Road Shops", "long": "-0.1360282007", "naptanCode": "brijdmd", "lat": "50.8300124919"}, {"bearing": "NW", "indicator": "Stop D", "street": "London Road", "name": "York Hill", "long": "-0.1379400644", "naptanCode": "brijdma", "lat": "50.8326422075"}, {"bearing": "NW", "indicator": "Stop X", "street": "Preston Road", "name": "Preston Circus", "long": "-0.1398425427", "naptanCode": "briapga", "lat": "50.8340845714"}, {"bearing": "NW", "indicator": "opp", "street": "Preston Road", "name": "Springfield Road", "long": "-0.1420715896", "naptanCode": "brimtaw", "lat": "50.8355321048"}, {"bearing": "NW", "indicator": "opp", "street": "Preston Road", "name": "Stanford Avenue", "long": "-0.144295138", "naptanCode": "bridwdw", "lat": "50.8367636585"}, {"bearing": "NW", "indicator": "adj", "street": "Preston Road", "name": "Nestor Court", "long": "-0.1482536001", "naptanCode": "brijgmg", "lat": "50.8390210198"}, {"bearing": "NW", "indicator": "adj", "street": "Preston Road", "name": "Rookery Close", "long": "-0.1508394037", "naptanCode": "bridmjw", "lat": "50.8411575639"}, {"bearing": "N", "indicator": "N-bound", "street": "London Road", "name": "Preston Drove", "long": "-0.1515675169", "naptanCode": "bridpjw", "lat": "50.8439391557"}, {"bearing": "N", "indicator": "opp", "street": "London Road", "name": "Harrington Road", "long": "-0.1515053287", "naptanCode": "bridwgj", "lat": "50.8458718105"}, {"bearing": "NW", "indicator": "opp", "street": "London Road", "name": "Varndean Road", "long": "-0.1527116566", "naptanCode": "bridatw", "lat": "50.8484181394"}, {"bearing": "NW", "indicator": "adj", "street": "London Road", "name": "Cedars Gardens", "long": "-0.1531762495", "naptanCode": "brimdtd", "lat": "50.8510426518"}, {"bearing": "N", "indicator": "adj", "street": "London Road", "name": "Tongdean Lane East", "long": "-0.1552485873", "naptanCode": "briamap", "lat": "50.8536116498"}, {"bearing": "N", "indicator": "adj", "street": "London Road", "name": "The Deneway East", "long": "-0.1544087422", "naptanCode": "brijmwm", "lat": "50.8558108077"}, {"bearing": "NE", "indicator": "Stop I", "street": "Lewes Road", "name": "The Level", "long": "-0.1324939251", "naptanCode": "bridtpm", "lat": "50.8303247062"}, {"bearing": "NE", "indicator": "opp", "street": "Lewes Road", "name": "Elm Grove", "long": "-0.1290131053", "naptanCode": "brijmjp", "lat": "50.8328501254"}, {"bearing": "NE", "indicator": "adj", "street": "Lewes Road", "name": "St Pauls Street", "long": "-0.1273109956", "naptanCode": "briatpt", "lat": "50.834216839"}, {"bearing": "NE", "indicator": "opp", "street": "Lewes Road", "name": "Melbourne Street", "long": "-0.1257217619", "naptanCode": "brijgdp", "lat": "50.8359540839"}, {"bearing": "NE", "indicator": "opp", "street": "Lewes Road", "name": "Lewes Road Bus Garage", "long": "-0.1238757431", "naptanCode": "bridpaw", "lat": "50.8384246623"}, {"bearing": "NE", "indicator": "opp", "street": "Lewes Road", "name": "Coombe Road", "long": "-0.1217202416", "naptanCode": "bridmat", "lat": "50.8411690343"}, {"bearing": "W", "indicator": "adj", "street": "Western Road", "name": "Clarence Square", "long": "-0.1485910999", "naptanCode": "brimdtm", "lat": "50.824033884"}, {"bearing": "W", "indicator": "opp", "street": "Grand Junction Rd", "name": "Ship Street", "long": "-0.1421174086", "naptanCode": "brimdtp", "lat": "50.8200726495"}, {"bearing": "W", "indicator": "opp", "street": "Kings Road", "name": "Brighton Centre", "long": "-0.1461962817", "naptanCode": "brimdtw", "lat": "50.8206861629"}, {"bearing": "W", "indicator": "adj", "street": "Kings Road", "name": "West Pier", "long": "-0.1501826694", "naptanCode": "briamtd", "lat": "50.8214869342"}, {"bearing": "N", "indicator": "Stop L", "street": "Queens Road", "name": "Clock Tower", "long": "-0.1434652716", "naptanCode": "brijdgj", "lat": "50.8240333577"}, {"bearing": "N", "indicator": "opp", "street": "Queens Road", "name": "North Road", "long": "-0.1420608575", "naptanCode": "briajat", "lat": "50.8268620033"}, {"bearing": "NW", "indicator": "adj", "street": "Kings Road", "name": "Bandstand", "long": "-0.1551319662", "naptanCode": "bridtag", "lat": "50.8223567639"}, {"bearing": "W", "indicator": "opp", "street": "Kingsway", "name": "Brunswick Square", "long": "-0.1579798854", "naptanCode": "briagaw", "lat": "50.8228694443"}, {"bearing": "W", "indicator": "opp", "street": "Kingsway", "name": "Holland Road", "long": "-0.1629227004", "naptanCode": "brimtmg", "lat": "50.8235499717"}, {"bearing": "W", "indicator": "opp", "street": "Kingsway", "name": "Fourth Avenue", "long": "-0.1723949948", "naptanCode": "brimpma", "lat": "50.824598135"}, {"bearing": "W", "indicator": "W-bound", "street": "Kingsway", "name": "King Alfred", "long": "-0.1786686474", "naptanCode": "bridawj", "lat": "50.8253887728"}, {"bearing": "NE", "indicator": "NE-bound", "street": "Montpelier Road", "name": "Waitrose Montpelier Road", "long": "-0.152582422", "naptanCode": "briadwd", "lat": "50.8254372274"}, {"bearing": "W", "indicator": "opp", "street": "Western Road", "name": "Brunswick Place", "long": "-0.1588784564", "naptanCode": "briajmp", "lat": "50.8256536892"}, {"bearing": "SW", "indicator": "SW-bound", "street": "Furze Hill", "name": "Furze Croft", "long": "-0.1570768158", "naptanCode": "brijtaj", "lat": "50.8281344798"}, {"bearing": "W", "indicator": "W-bound", "street": "Furze Hill", "name": "Top of Furze Hill", "long": "-0.1542921191", "naptanCode": "briajmj", "lat": "50.828531143"}, {"bearing": "W", "indicator": "Stop O", "street": "Church Road", "name": "George Street South", "long": "-0.1750552231", "naptanCode": "briawpg", "lat": "50.8281113436"}, {"bearing": "NE", "indicator": "adj", "street": "Denmark Terrace", "name": "Windlesham Avenue", "long": "-0.1504905545", "naptanCode": "brimtap", "lat": "50.8287857101"}, {"bearing": "W", "indicator": "adj", "street": "Kingsway", "name": "Hove Street South", "long": "-0.1820262766", "naptanCode": "brimdwa", "lat": "50.8255850484"}, {"bearing": "W", "indicator": "opp", "street": "Kingsway", "name": "Westbourne Villas South", "long": "-0.1854925847", "naptanCode": "briawtj", "lat": "50.8259088292"}, {"bearing": "W", "indicator": "opp", "street": "Kingsway", "name": "Babylon Lounge", "long": "-0.1887222173", "naptanCode": "bridjdt", "lat": "50.8261119143"}, {"bearing": "W", "indicator": "opp", "street": "Kingsway", "name": "Langdale Gardens", "long": "-0.1910862205", "naptanCode": "brijtjm", "lat": "50.8263014895"}, {"bearing": "W", "indicator": "opp", "street": "Kingsway", "name": "Wish Road South", "long": "-0.1948523767", "naptanCode": "briajwt", "lat": "50.8269534124"}, {"bearing": "W", "indicator": "opp", "street": "Kingsway", "name": "Roman Road", "long": "-0.2013476543", "naptanCode": "bridjtw", "lat": "50.8286456202"}, {"bearing": "SW", "indicator": "opp", "street": "Montpelier Road", "name": "Park Royal", "long": "-0.151376886", "naptanCode": "brijtwd", "lat": "50.8268391332"}, {"bearing": "W", "indicator": "opp", "street": "Kingsway", "name": "St Keyna Avenue South", "long": "-0.2049191984", "naptanCode": "brijagd", "lat": "50.8288265456"}, {"bearing": "N", "indicator": "N-bound", "street": "Montefiore Road", "name": "Legal & General", "long": "-0.1552690074", "naptanCode": "briagtw", "lat": "50.8318472807"}, {"bearing": "W", "indicator": "adj", "street": "Buckingham Place", "name": "Compton Avenue", "long": "-0.1449171831", "naptanCode": "brijpjd", "lat": "50.8307477747"}, {"bearing": "NW", "indicator": "NW-bound", "street": "Dyke Road", "name": "Seven Dials", "long": "-0.1477388867", "naptanCode": "brimdwd", "lat": "50.831215317"}, {"bearing": "W", "indicator": "W-bound", "street": "Old Shoreham Road", "name": "BHASVIC", "long": "-0.1510640384", "naptanCode": "briapda", "lat": "50.8336783775"}, {"bearing": "W", "indicator": "adj", "street": "Old Shoreham Road", "name": "Montefiore Road North", "long": "-0.1547858415", "naptanCode": "brijdam", "lat": "50.8343758591"}, {"bearing": "W", "indicator": "adj", "street": "Old Shoreham Road", "name": "Silverdale Road", "long": "-0.1570305393", "naptanCode": "briagja", "lat": "50.8347171285"}, {"bearing": "NW", "indicator": "NW-bound", "street": "Old Shoreham Road", "name": "The Upper Drive", "long": "-0.1609917507", "naptanCode": "bridpja", "lat": "50.8358319022"}, {"bearing": "W", "indicator": "adj", "street": "Old Shoreham Road", "name": "The Drive", "long": "-0.1664092651", "naptanCode": "brijdjp", "lat": "50.837482078"}, {"bearing": "W", "indicator": "adj", "street": "Old Shoreham Road", "name": "Hove Park Villas", "long": "-0.1692991796", "naptanCode": "brijpmg", "lat": "50.8383998502"}, {"bearing": "W", "indicator": "adj", "street": "Old Shoreham Road", "name": "Hove Park South", "long": "-0.1735109381", "naptanCode": "brijmgp", "lat": "50.8389335383"}, {"bearing": "W", "indicator": "W-bound", "street": "Old Shoreham Road", "name": "Hove Park Tavern", "long": "-0.1788793964", "naptanCode": "bridjat", "lat": "50.8389455165"}, {"bearing": "W", "indicator": "adj", "street": "Old Shoreham Road", "name": "Aldrington Avenue", "long": "-0.1835242722", "naptanCode": "bridgwt", "lat": "50.8389369896"}, {"bearing": "W", "indicator": "adj", "street": "Old Shoreham Road", "name": "Amherst Crescent", "long": "-0.1863982693", "naptanCode": "brijapd", "lat": "50.8388108247"}, {"bearing": "W", "indicator": "opp", "street": "Old Shoreham Road", "name": "English Close", "long": "-0.1913791139", "naptanCode": "briadgd", "lat": "50.8378269002"}, {"bearing": "W", "indicator": "W-bound", "street": "Old Shoreham Road", "name": "Hove Cemetery", "long": "-0.1955398618", "naptanCode": "briadgm", "lat": "50.8382151025"}, {"bearing": "W", "indicator": "opp", "street": "Old Shoreham Road", "name": "Stapley Road", "long": "-0.2008899051", "naptanCode": "briatwj", "lat": "50.8379649676"}, {"bearing": "NW", "indicator": "opp", "street": "Dyke Road", "name": "Booths Museum", "long": "-0.153864742", "naptanCode": "bridapa", "lat": "50.8375630378"}, {"bearing": "NE", "indicator": "Stop F", "street": "Upper Drive", "name": "Cardinal Newman School", "long": "-0.1587968826", "naptanCode": "brijmtj", "lat": "50.8374701055"}, {"bearing": "NE", "indicator": "NE-bound", "street": "Vernon Terrace", "name": "Seven Dials", "long": "-0.148181413", "naptanCode": "brimjwa", "lat": "50.8304398911"}, {"bearing": "W", "indicator": "W-bound", "street": "Goldsmid Road", "name": "Seven Dials", "long": "-0.1486688882", "naptanCode": "briagmj", "lat": "50.8306814648"}, {"bearing": "N", "indicator": "opp", "street": "The Drive", "name": "Upper Drive", "long": "-0.1663531409", "naptanCode": "briajwm", "lat": "50.8360152274"}, {"bearing": "W", "indicator": "W-bound", "street": "Lansdowne Road", "name": "Lansdowne Road", "long": "-0.1599778788", "naptanCode": "brijdat", "lat": "50.828027384"}, {"bearing": "N", "indicator": "opp", "street": "Ditchling Road", "name": "Bromley Road", "long": "-0.1338869007", "naptanCode": "brijpmp", "lat": "50.8345650488"}, {"bearing": "NW", "indicator": "NW-bound", "street": "Friar Road", "name": "Friar Road East End", "long": "-0.1355246235", "naptanCode": "brimdwg", "lat": "50.850842842"}, {"bearing": "SW", "indicator": "opp", "street": "New England Road", "name": "York Grove", "long": "-0.1450304723", "naptanCode": "bridtwg", "lat": "50.8321885683"}, {"bearing": "E", "indicator": "E-bound", "street": "Carden Avenue", "name": "Bottom of Carden Avenue", "long": "-0.1533526255", "naptanCode": "briadmg", "lat": "50.8566484943"}, {"bearing": "NE", "indicator": "opp", "street": "Carden Avenue", "name": "Graham Avenue", "long": "-0.1484844311", "naptanCode": "brijwgm", "lat": "50.8572278794"}, {"bearing": "N", "indicator": "adj", "street": "Ditchling Road", "name": "Surrenden Road East End", "long": "-0.1348584515", "naptanCode": "briapjp", "lat": "50.853296463"}, {"bearing": "N", "indicator": "adj", "street": "Ditchling Road", "name": "Friar Road", "long": "-0.135233415", "naptanCode": "brijwad", "lat": "50.8503075605"}, {"bearing": "N", "indicator": "adj", "street": "Ditchling Road", "name": "Varndean High School", "long": "-0.1353416843", "naptanCode": "brijgtp", "lat": "50.8493739477"}, {"bearing": "N", "indicator": "adj", "street": "Ditchling Road", "name": "Osborne Road", "long": "-0.135522068", "naptanCode": "briawmt", "lat": "50.8473442574"}, {"bearing": "N", "indicator": "opp", "street": "Ditchling Road", "name": "St Matthias Church", "long": "-0.1352561103", "naptanCode": "brijpwj", "lat": "50.8458200732"}, {"bearing": "N", "indicator": "N-bound", "street": "Ditchling Road", "name": "Fiveways", "long": "-0.1348821192", "naptanCode": "bridtgj", "lat": "50.8437995077"}, {"bearing": "N", "indicator": "adj", "street": "Ditchling Road", "name": "Semley Road", "long": "-0.1343360207", "naptanCode": "brijgaw", "lat": "50.8418211564"}, {"bearing": "N", "indicator": "adj", "street": "Ditchling Road", "name": "Rugby Road East", "long": "-0.133932841", "naptanCode": "briawgm", "lat": "50.8401778548"}, {"bearing": "N", "indicator": "adj", "street": "Ditchling Road", "name": "Springfield Road East", "long": "-0.1336335035", "naptanCode": "brijawp", "lat": "50.8380685401"}, {"bearing": "N", "indicator": "opp", "street": "Ditchling Road", "name": "Prince's Crescent", "long": "-0.133713832", "naptanCode": "brijamj", "lat": "50.8360552354"}, {"bearing": "NE", "indicator": "NE-bound", "street": "Stanford Avenue", "name": "Edburton Avenue", "long": "-0.1351192136", "naptanCode": "brimpwa", "lat": "50.8428409726"}, {"bearing": "NE", "indicator": "adj", "street": "Stanford Avenue", "name": "Cleveland Road", "long": "-0.1371965827", "naptanCode": "brijdpw", "lat": "50.8413272462"}, {"bearing": "NE", "indicator": "opp", "street": "Stanford Avenue", "name": "Rugby Road West", "long": "-0.1402855237", "naptanCode": "brijmpj", "lat": "50.8386604331"}, {"bearing": "NW", "indicator": "NW-bound", "street": "Dyke Road", "name": "BHASVIC", "long": "-0.1509731794", "naptanCode": "briamtw", "lat": "50.8341805841"}, {"bearing": "NW", "indicator": "opp", "street": "Dyke Road", "name": "Dyke Tavern", "long": "-0.1561536739", "naptanCode": "brijamt", "lat": "50.8393080371"}, {"bearing": "NW", "indicator": "opp", "street": "Dyke Road", "name": "Church of the Good Shepherd", "long": "-0.1575654645", "naptanCode": "briagdt", "lat": "50.8406074443"}, {"bearing": "NW", "indicator": "NW-bound", "street": "Dyke Road", "name": "The Droveway", "long": "-0.159089173", "naptanCode": "briatjm", "lat": "50.8423133151"}, {"bearing": "NW", "indicator": "adj", "street": "Dyke Road", "name": "Onslow Road", "long": "-0.1598134521", "naptanCode": "briamjg", "lat": "50.8444832223"}, {"bearing": "NW", "indicator": "adj", "street": "Dyke Road", "name": "Top of Woodruff Avenue", "long": "-0.1605349131", "naptanCode": "brijmgw", "lat": "50.8463652823"}, {"bearing": "NW", "indicator": "opp", "street": "Dyke Road Avenue", "name": "Hazeldene Meads", "long": "-0.1621115298", "naptanCode": "bridtdg", "lat": "50.848539615"}, {"bearing": "NW", "indicator": "adj", "street": "Dyke Road Avenue", "name": "Tongdean Road", "long": "-0.1642906203", "naptanCode": "brijpgm", "lat": "50.8505705137"}, {"bearing": "NW", "indicator": "adj", "street": "Dyke Road Avenue", "name": "Hill Brow South", "long": "-0.1676525007", "naptanCode": "bridawp", "lat": "50.8532405137"}, {"bearing": "NW", "indicator": "adj", "street": "Friar Road", "name": "Friar Crescent", "long": "-0.1399337541", "naptanCode": "bridwmt", "lat": "50.8525051015"}, {"bearing": "NE", "indicator": "opp", "street": "Surrenden Road", "name": "Varndean College", "long": "-0.1451782672", "naptanCode": "bridgdw", "lat": "50.8513834443"}, {"bearing": "N", "indicator": "opp", "street": "Surrenden Road", "name": "Surrenden Holt", "long": "-0.1468038619", "naptanCode": "briapmp", "lat": "50.8497994095"}, {"bearing": "N", "indicator": "opp", "street": "Surrenden Road", "name": "Loder Road", "long": "-0.1462783837", "naptanCode": "brijpwd", "lat": "50.8462115783"}, {"bearing": "NE", "indicator": "adj", "street": "Surrenden Road", "name": "St Marys Church", "long": "-0.1454651949", "naptanCode": "brijgtj", "lat": "50.8445078425"}, {"bearing": "N", "indicator": "N-bound", "street": "Beaconsfield Villas", "name": "Beaconsfield Villas Top", "long": "-0.1434434098", "naptanCode": "bridawg", "lat": "50.8439090838"}, {"bearing": "N", "indicator": "opp", "street": "Beaconsfield Villas", "name": "Lucerne Road", "long": "-0.1426470568", "naptanCode": "brijgap", "lat": "50.8421426391"}, {"bearing": "N", "indicator": "N-bound", "street": "Beaconsfield Villas", "name": "Beaconsfield Villas middle", "long": "-0.141974947", "naptanCode": "brijpag", "lat": "50.8404681039"}, {"bearing": "N", "indicator": "N-bound", "street": "Beaconsfield Villas", "name": "Beaconsfield Villas bottom", "long": "-0.1412159307", "naptanCode": "bridmpd", "lat": "50.838837148"}, {"bearing": "NE", "indicator": "Stop B", "street": "Stanford Avenue", "name": "Stanford Avenue", "long": "-0.1421641792", "naptanCode": "briadtw", "lat": "50.8371344575"}, {"bearing": "E", "indicator": "E-bound", "street": "Preston Drove", "name": "Chester Terrace", "long": "-0.1407598954", "naptanCode": "briadtm", "lat": "50.8442350891"}, {"bearing": "E", "indicator": "opp", "street": "Preston Drove", "name": "Southdown Road", "long": "-0.1373252655", "naptanCode": "brimgdj", "lat": "50.8438025665"}, {"bearing": "E", "indicator": "E-bound", "street": "Hollingbury Road", "name": "Fiveways", "long": "-0.1377342074", "naptanCode": "briamdt", "lat": "50.843521297"}, {"bearing": "SE", "indicator": "adj", "street": "Upper Hollingdean Road", "name": "Bottom of Roedale Road", "long": "-0.1304076599", "naptanCode": "brijdmp", "lat": "50.839887577"}, {"bearing": "SE", "indicator": "SE-bound", "street": "Upper Hollingdean Road", "name": "Bottom of Davey Drive", "long": "-0.1297128383", "naptanCode": "brimgdm", "lat": "50.8391479495"}, {"bearing": "N", "indicator": "o/s", "street": "Lewes Road", "name": "Sainsburys", "long": "-0.1256533995", "naptanCode": "briatad", "lat": "50.8369512877"}, {"bearing": "E", "indicator": "opp", "street": "Bear Road", "name": "Newmarket Arms", "long": "-0.1209085574", "naptanCode": "brimpmp", "lat": "50.8376843892"}, {"bearing": "E", "indicator": "o/s 253", "street": "Bear Road", "name": "Bear Road", "long": "-0.1174429629", "naptanCode": "brijwaj", "lat": "50.8373317216"}, {"bearing": "NW", "indicator": "Stop J", "street": "Dyke Road", "name": "Imperial Arcade", "long": "-0.1449374774", "naptanCode": "brijapw", "lat": "50.8241467171"}, {"bearing": "E", "indicator": "adj", "street": "Warren Road", "name": "Top of Bear Road", "long": "-0.1045492066", "naptanCode": "brimgdp", "lat": "50.8355130552"}, {"bearing": "E", "indicator": "opp", "street": "Warren Road", "name": "Top of Wilson Avenue", "long": "-0.0994339071", "naptanCode": "bridjgw", "lat": "50.8348722152"}, {"bearing": "E", "indicator": "adj", "street": "Bear Road", "name": "Bevendean Road", "long": "-0.1151089408", "naptanCode": "bridmag", "lat": "50.8370961708"}, {"bearing": "NE", "indicator": "NE-bound", "street": "Freshfield Road", "name": "Race Hill", "long": "-0.112899301", "naptanCode": "bridjwg", "lat": "50.8313134538"}, {"bearing": "NE", "indicator": "adj", "street": "Freshfield Road", "name": "Pankhurst Avenue", "long": "-0.1137371161", "naptanCode": "bridpat", "lat": "50.8299059944"}, {"bearing": "NE", "indicator": "opp", "street": "Queensway", "name": "Tilgate Close", "long": "-0.1168407972", "naptanCode": "bridwmd", "lat": "50.8272400329"}, {"bearing": "NE", "indicator": "opp", "street": "Queensway", "name": "Hadlow Close", "long": "-0.1187820188", "naptanCode": "bridtma", "lat": "50.8259312894"}, {"bearing": "NE", "indicator": "adj", "street": "Sutherland Road", "name": "Evelyn Terrace", "long": "-0.1204383856", "naptanCode": "brijmwa", "lat": "50.8239344003"}, {"bearing": "NE", "indicator": "adj", "street": "Sutherland Road", "name": "Freshfield Way", "long": "-0.1228905201", "naptanCode": "bridamp", "lat": "50.8215635659"}, {"bearing": "NE", "indicator": "opp", "street": "Freshfield Road", "name": "Cuthbert Road", "long": "-0.1213874155", "naptanCode": "briawma", "lat": "50.8254066736"}, {"bearing": "NE", "indicator": "adj", "street": "Freshfield Road", "name": "St Lukes Terrace", "long": "-0.1195213184", "naptanCode": "briawpj", "lat": "50.8269684957"}, {"bearing": "NE", "indicator": "adj", "street": "Freshfield Road", "name": "Glynde Road", "long": "-0.1173787781", "naptanCode": "brimtjm", "lat": "50.8279862031"}, {"bearing": "E", "indicator": "o/s", "street": "Edward Street", "name": "American Express", "long": "-0.1332876951", "naptanCode": "brimtat", "lat": "50.8225308627"}, {"bearing": "E", "indicator": "E-bound", "street": "St James Street", "name": "Devonshire Place", "long": "-0.1322707847", "naptanCode": "briawjt", "lat": "50.8206169077"}, {"bearing": "E", "indicator": "adj", "street": "Eastern Road", "name": "Lidl Superstore", "long": "-0.1082667692", "naptanCode": "briamdj", "lat": "50.8166325715"}, {"bearing": "NE", "indicator": "NE-bound", "street": "Arundel Road", "name": "Arundel Road", "long": "-0.1068916915", "naptanCode": "brijdwt", "lat": "50.8172847933"}, {"bearing": "E", "indicator": "E-bound", "street": "Roedean Road", "name": "Roedean Road", "long": "-0.1061910385", "naptanCode": "brijtad", "lat": "50.8174083256"}, {"bearing": "S", "indicator": "S-bound", "street": "Marina Slip Road", "name": "Marina Slip Road", "long": "-0.1046304184", "naptanCode": "brimjwj", "lat": "50.8152784356"}, {"bearing": "W", "indicator": "Stop L", "street": "Eaton Road", "name": "Eaton Road", "long": "-0.1695266905", "naptanCode": "briatjw", "lat": "50.8304080463"}, {"bearing": "W", "indicator": "Stop E", "street": "Blatchington Road", "name": "George Street", "long": "-0.1744957083", "naptanCode": "brimgjg", "lat": "50.8311694315"}, {"bearing": "W", "indicator": "Stop F", "street": "Blatchington Road", "name": "George Street", "long": "-0.1740450568", "naptanCode": "brimgjm", "lat": "50.8310724417"}, {"bearing": "W", "indicator": "Stop U", "street": "Portland Road", "name": "Sackville Road", "long": "-0.1786068759", "naptanCode": "briawpw", "lat": "50.8324478392"}, {"bearing": "W", "indicator": "W-bound", "street": "Portland Road", "name": "Westbourne Street", "long": "-0.1821588231", "naptanCode": "briawpt", "lat": "50.8327730532"}, {"bearing": "W", "indicator": "opp", "street": "Portland Road", "name": "Scott Road", "long": "-0.1874440457", "naptanCode": "brijapj", "lat": "50.8334488743"}, {"bearing": "W", "indicator": "opp", "street": "Portland Road", "name": "School Road", "long": "-0.191077822", "naptanCode": "brijtjd", "lat": "50.8338650238"}, {"bearing": "W", "indicator": "adj", "street": "Portland Road", "name": "Coleman Avenue", "long": "-0.1944821402", "naptanCode": "brijawd", "lat": "50.8343404641"}, {"bearing": "W", "indicator": "opp", "street": "Portland Road", "name": "Olive Road", "long": "-0.1978197163", "naptanCode": "brijatw", "lat": "50.8347068499"}, {"bearing": "W", "indicator": "Stop P", "street": "Portland Road", "name": "Glebe Villas", "long": "-0.2008661892", "naptanCode": "bridjmp", "lat": "50.8348887779"}, {"bearing": "W", "indicator": "Stop H", "street": "Portland Road", "name": "Portslade Railway Station", "long": "-0.2047719623", "naptanCode": "bridtda", "lat": "50.835254732"}, {"bearing": "N", "indicator": "opp", "street": "Olive Road", "name": "Isabel Crescent", "long": "-0.1980326138", "naptanCode": "bridjag", "lat": "50.8369225743"}, {"bearing": "N", "indicator": "Stop C", "street": "Boundary Road", "name": "Portslade Railway Station", "long": "-0.2063138714", "naptanCode": "brimgjp", "lat": "50.8350446154"}, {"bearing": "N", "indicator": "adj", "street": "Sackville Road", "name": "Coleridge Street", "long": "-0.1773108558", "naptanCode": "brijdmt", "lat": "50.8354584614"}, {"bearing": "N", "indicator": "Stop V", "street": "Sackville Road", "name": "Portland Road", "long": "-0.177714663", "naptanCode": "briadpj", "lat": "50.8327486835"}, {"bearing": "N", "indicator": "opp", "street": "Hangleton Road", "name": "Martin Road", "long": "-0.2020943684", "naptanCode": "bridpdt", "lat": "50.8421026192"}, {"bearing": "NW", "indicator": "NW-bound", "street": "Court Farm Road", "name": "Court Farm Road", "long": "-0.1830533004", "naptanCode": "brimgjw", "lat": "50.8466731847"}, {"bearing": "NW", "indicator": "opp", "street": "Court Farm Road", "name": "Nevill Way", "long": "-0.180847062", "naptanCode": "bridapt", "lat": "50.8460542176"}, {"bearing": "N", "indicator": "opp", "street": "Nevill Road", "name": "Waitrose", "long": "-0.1771796299", "naptanCode": "brimgma", "lat": "50.8439284353"}, {"bearing": "N", "indicator": "opp", "street": "Nevill Road", "name": "Greyhound Stadium", "long": "-0.1780988028", "naptanCode": "bridpmg", "lat": "50.8418472726"}, {"bearing": "N", "indicator": "N-bound", "street": "Nevill Road", "name": "Hove Park Tavern", "long": "-0.1781344523", "naptanCode": "briapgm", "lat": "50.8394735046"}, {"bearing": "N", "indicator": "opp", "street": "Stapley Road", "name": "Old School Place", "long": "-0.1982001588", "naptanCode": "bridamj", "lat": "50.8436344134"}, {"bearing": "N", "indicator": "N-bound", "street": "Godwin Road", "name": "Godwin Road middle", "long": "-0.2013066045", "naptanCode": "bridjaj", "lat": "50.8411641326"}, {"bearing": "SW", "indicator": "SW-bound", "street": "Bellingham Crescent", "name": "St Richards Church", "long": "-0.201045443", "naptanCode": "bridjta", "lat": "50.8394603093"}, {"bearing": "NW", "indicator": "NE-bound", "street": "Bellingham Crescent", "name": "Bellingham Crescent", "long": "-0.1993381968", "naptanCode": "brimgmd", "lat": "50.8387954226"}, {"bearing": "NE", "indicator": "NE-bound", "street": "Godwin Road", "name": "Godwin Road", "long": "-0.2019626322", "naptanCode": "brimgmj", "lat": "50.839987086"}, {"bearing": "NE", "indicator": "NE-bound", "street": "Chatham Place", "name": "Seven Dials", "long": "-0.1470154365", "naptanCode": "brijmtw", "lat": "50.8311948338"}, {"bearing": "W", "indicator": "opp", "street": "Western Road", "name": "Waitrose", "long": "-0.1523426107", "naptanCode": "bridgad", "lat": "50.8246779582"}, {"bearing": "S", "indicator": "Stop A", "street": "Boundary Road", "name": "Boundary Road", "long": "-0.2072523067", "naptanCode": "brijdaj", "lat": "50.8327926447"}, {"bearing": "N", "indicator": "Stop B", "street": "Boundary Road", "name": "Boundary Road", "long": "-0.2071783829", "naptanCode": "brijtam", "lat": "50.8336099295"}, {"bearing": "W", "indicator": "Stop J", "street": "Cheapside", "name": "Cheapside", "long": "-0.1362661396", "naptanCode": "brijpdw", "lat": "50.8293867338"}, {"bearing": "N", "indicator": "N-bound", "street": "Shirley Drive", "name": "Old Shoreham Road", "long": "-0.1658732466", "naptanCode": "briadja", "lat": "50.8381122025"}, {"bearing": "NE", "indicator": "Stop E", "street": "Upper Drive", "name": "Cardinal Newman School", "long": "-0.1601388694", "naptanCode": "brimgpj", "lat": "50.8369336701"}, {"bearing": "NW", "indicator": "adj", "street": "Dyke Road", "name": "Clifton Hill", "long": "-0.1465160036", "naptanCode": "brijdja", "lat": "50.827670362"}, {"bearing": "NW", "indicator": "NW-bound", "street": "Dyke Road", "name": "Homelees House", "long": "-0.1469075214", "naptanCode": "briapja", "lat": "50.8288997259"}, {"bearing": "E", "indicator": "opp", "street": "New Church Road", "name": "St Keyna Avenue North", "long": "-0.2029610871", "naptanCode": "briadaw", "lat": "50.8324837911"}, {"bearing": "W", "indicator": "W-bound", "street": "New Church Road", "name": "Brittany Court", "long": "-0.1994401438", "naptanCode": "brimgpm", "lat": "50.8317190012"}, {"bearing": "W", "indicator": "adj", "street": "New Church Road", "name": "Wish Road North", "long": "-0.1942978956", "naptanCode": "brijdwm", "lat": "50.8310189559"}, {"bearing": "W", "indicator": "opp", "street": "New Church Road", "name": "Richardson Road", "long": "-0.187888592", "naptanCode": "briajgt", "lat": "50.8300381911"}, {"bearing": "W", "indicator": "adj", "street": "New Church Road", "name": "Westbourne Villas North", "long": "-0.1846123864", "naptanCode": "brijtwj", "lat": "50.8295645498"}, {"bearing": "NW", "indicator": "NW-bound", "street": "Goldstone Crescent", "name": "Woodland Drive", "long": "-0.1743935495", "naptanCode": "bridwpd", "lat": "50.846160265"}, {"bearing": "W", "indicator": "W-bound", "street": "Elm Drive", "name": "Holmes Avenue", "long": "-0.1885165601", "naptanCode": "brijtjt", "lat": "50.8398600182"}, {"bearing": "W", "indicator": "W-bound", "street": "Elm Drive", "name": "Elm Drive Shops", "long": "-0.1942438132", "naptanCode": "brijwdm", "lat": "50.8401466684"}, {"bearing": "N", "indicator": "N-bound", "street": "Rowan Avenue", "name": "Maytree Walk", "long": "-0.1966863788", "naptanCode": "bridgtd", "lat": "50.8423699033"}, {"bearing": "NW", "indicator": "opp", "street": "Nevill Avenue", "name": "Fallowfield Crescent", "long": "-0.1909422598", "naptanCode": "briatpm", "lat": "50.8439807707"}, {"bearing": "W", "indicator": "W-bound", "street": "Nevill Avenue", "name": "Bishop Hannington Church", "long": "-0.1867514396", "naptanCode": "brimgpw", "lat": "50.8428904358"}, {"bearing": "NW", "indicator": "adj", "street": "Nevill Road", "name": "Nevill Gardens", "long": "-0.1794476538", "naptanCode": "brimtpg", "lat": "50.8455107571"}, {"bearing": "W", "indicator": "W-bound", "street": "Nevill Avenue", "name": "Greyhound Stadium", "long": "-0.1788839228", "naptanCode": "bridpwa", "lat": "50.8413828674"}, {"bearing": "NW", "indicator": "opp", "street": "Goldstone Crescent", "name": "Elizabeth Avenue", "long": "-0.1783337103", "naptanCode": "bridgtg", "lat": "50.8471212189"}, {"bearing": "NW", "indicator": "opp", "street": "Goldstone Crescent", "name": "Edward Avenue", "long": "-0.1818343436", "naptanCode": "brimjwt", "lat": "50.848794681"}, {"bearing": "NE", "indicator": "NE-bound", "street": "Queen Victoria Avenue", "name": "Bottom of Queen Victoria Avenue", "long": "-0.1821664478", "naptanCode": "brimpad", "lat": "50.8497531817"}, {"bearing": "E", "indicator": "opp", "street": "Queen Victoria Avenue", "name": "Goldstone Valley Shops", "long": "-0.1782193891", "naptanCode": "bridpmd", "lat": "50.8504201006"}, {"bearing": "NW", "indicator": "NW-bound", "street": "Elizabeth Avenue", "name": "Elizabeth Avenue", "long": "-0.1765366174", "naptanCode": "bridpmj", "lat": "50.8491257087"}, {"bearing": "NE", "indicator": "NE-bound", "street": "Elizabeth Avenue", "name": "Bottom of Elizabeth Avenue", "long": "-0.1774887101", "naptanCode": "bridadw", "lat": "50.8472968884"}, {"bearing": "NW", "indicator": "opp", "street": "Goldstone Crescent", "name": "Woodland Avenue", "long": "-0.1759227952", "naptanCode": "brimgta", "lat": "50.8466518544"}, {"bearing": "NW", "indicator": "adj", "street": "Goldstone Crescent", "name": "Hove Park North", "long": "-0.1725010426", "naptanCode": "briagpj", "lat": "50.8451503274"}, {"bearing": "W", "indicator": "adj", "street": "Woodruff Avenue", "name": "Hove Park Way", "long": "-0.1695198421", "naptanCode": "brijwda", "lat": "50.8443751042"}, {"bearing": "NW", "indicator": "NW-bound", "street": "Shirley Drive", "name": "Woodruff Avenue", "long": "-0.1656387647", "naptanCode": "bridgwj", "lat": "50.8451775366"}, {"bearing": "W", "indicator": "W-bound", "street": "Woodruff Avenue", "name": "Top of Woodruff Avenue", "long": "-0.1606582774", "naptanCode": "bridjda", "lat": "50.8453959116"}, {"bearing": "N", "indicator": "N-bound", "street": "Shirley Drive", "name": "The Droveway", "long": "-0.1651704273", "naptanCode": "brijwdw", "lat": "50.8415457255"}, {"bearing": "SE", "indicator": "adj", "street": "Queens Park Terrace", "name": "St Lukes Church", "long": "-0.1241298633", "naptanCode": "brimtjt", "lat": "50.8274833917"}, {"bearing": "W", "indicator": "opp", "street": "Cromwell Road", "name": "Wilbury Villas", "long": "-0.1634625241", "naptanCode": "brimgwd", "lat": "50.8325881334"}, {"bearing": "W", "indicator": "W-bound", "street": "Cromwell Road", "name": "Holland Road", "long": "-0.1608531076", "naptanCode": "brimgwg", "lat": "50.8321333137"}, {"bearing": "W", "indicator": "opp", "street": "Davigdor Road", "name": "Montefiore Road South", "long": "-0.1557224196", "naptanCode": "brijtpd", "lat": "50.8311529422"}, {"bearing": "W", "indicator": "W-bound", "street": "Davigdor Road", "name": "Osmond Road", "long": "-0.1525199308", "naptanCode": "bridgpd", "lat": "50.8306166075"}, {"bearing": "E", "indicator": "E-bound", "street": "Elm Grove", "name": "Bottom of Elm Grove", "long": "-0.1290181487", "naptanCode": "bridpgt", "lat": "50.8320137908"}, {"bearing": "E", "indicator": "adj", "street": "Elm Grove", "name": "De Montfort Road", "long": "-0.1250561773", "naptanCode": "bridtgm", "lat": "50.8316533848"}, {"bearing": "E", "indicator": "adj", "street": "Elm Grove", "name": "Bonchurch Road", "long": "-0.1215870245", "naptanCode": "briagpt", "lat": "50.8313997116"}, {"bearing": "E", "indicator": "E-bound", "street": "Elm Grove", "name": "Queens Park Junction", "long": "-0.1174797206", "naptanCode": "briatam", "lat": "50.8314773999"}, {"bearing": "E", "indicator": "opp", "street": "Elm Grove", "name": "Brighton General Hospital", "long": "-0.1144437631", "naptanCode": "briagmd", "lat": "50.8317521405"}, {"bearing": "E", "indicator": "E-bound", "street": "Elm Grove", "name": "Race Hill", "long": "-0.1131035368", "naptanCode": "bridwja", "lat": "50.8318833628"}, {"bearing": "E", "indicator": "opp", "street": "Roedean Road", "name": "Fire Station", "long": "-0.1027110749", "naptanCode": "bridwjw", "lat": "50.816749189"}, {"bearing": "E", "indicator": "adj", "street": "Roedean Road", "name": "Roedean Crescent", "long": "-0.0969621018", "naptanCode": "briapap", "lat": "50.8153334474"}, {"bearing": "E", "indicator": "E-bound", "street": "Roedean Road", "name": "Roedean Golf Course", "long": "-0.0922804071", "naptanCode": "briawdp", "lat": "50.8138629314"}, {"bearing": "SE", "indicator": "SE-bound", "street": "Manor Hill", "name": "Top of Manor Hill", "long": "-0.1141487185", "naptanCode": "brijadg", "lat": "50.8281498772"}, {"bearing": "W", "indicator": "adj", "street": "Cromwell Road", "name": "Eaton Gardens", "long": "-0.1681828783", "naptanCode": "brijmag", "lat": "50.8331749917"}, {"bearing": "S", "indicator": "S-bound", "street": "Goldstone Villas", "name": "Hove Railway Station", "long": "-0.1708524206", "naptanCode": "brijgja", "lat": "50.8346378805"}, {"bearing": "S", "indicator": "opp", "street": "Goldstone Villas", "name": "Livingstone Road", "long": "-0.1714402564", "naptanCode": "briatmg", "lat": "50.8334059697"}, {"bearing": "NW", "indicator": "NW-bound", "street": "Shirley Drive", "name": "Tredcroft Road", "long": "-0.1677748033", "naptanCode": "bridjdm", "lat": "50.8468569418"}, {"bearing": "NW", "indicator": "adj", "street": "Shirley Drive", "name": "Shirley Avenue", "long": "-0.1707477784", "naptanCode": "bridmdw", "lat": "50.8471194415"}, {"bearing": "NW", "indicator": "NW-bound", "street": "Shirley Drive", "name": "Woodland Parade", "long": "-0.172419075", "naptanCode": "brijpjg", "lat": "50.8487015355"}, {"bearing": "N", "indicator": "opp", "street": "Woodland Drive", "name": "Deanway", "long": "-0.1738821908", "naptanCode": "brijdgm", "lat": "50.85125166"}, {"bearing": "N", "indicator": "opp", "street": "Woodland Drive", "name": "Hill Brow North", "long": "-0.1725063811", "naptanCode": "brijwdp", "lat": "50.8548275749"}, {"bearing": "E", "indicator": "E-bound", "street": "Buckingham Road", "name": "Buckingham Road", "long": "-0.1454429322", "naptanCode": "briatda", "lat": "50.8267989046"}, {"bearing": "W", "indicator": "W-bound", "street": "Woodruff Avenue", "name": "Shirley Drive", "long": "-0.1655377916", "naptanCode": "bridgmg", "lat": "50.8444924307"}, {"bearing": "N", "indicator": "N-bound", "street": "Stapley Road", "name": "Bellingham Crescent", "long": "-0.1989286237", "naptanCode": "brimpag", "lat": "50.8391038774"}, {"bearing": "N", "indicator": "N-bound", "street": "Stapley Road", "name": "Stapley Road Rec", "long": "-0.1983362395", "naptanCode": "brimpaj", "lat": "50.8408394956"}, {"bearing": "NW", "indicator": "opp", "street": "Hartington Road", "name": "St Martins School", "long": "-0.1235486725", "naptanCode": "brijgpa", "lat": "50.8348938654"}, {"bearing": "NW", "indicator": "adj", "street": "Hartington Road", "name": "Bernard Road", "long": "-0.1198872384", "naptanCode": "bridawm", "lat": "50.8337646588"}, {"bearing": "N", "indicator": "N-bound", "street": "Ryde Road", "name": "Ryde Road", "long": "-0.1173841665", "naptanCode": "brijgaj", "lat": "50.8320874314"}, {"bearing": "NE", "indicator": "NE-bound", "street": "Queens Park Road", "name": "Queens Park Junction", "long": "-0.1192383598", "naptanCode": "briagat", "lat": "50.8311819934"}, {"bearing": "NE", "indicator": "adj", "street": "Queens Park Road", "name": "Baxter Street", "long": "-0.1205786891", "naptanCode": "brimjad", "lat": "50.830340198"}, {"bearing": "NE", "indicator": "NE-bound", "street": "Queens Park Road", "name": "The Hanover", "long": "-0.1233436301", "naptanCode": "bridwjg", "lat": "50.8286759048"}, {"bearing": "NE", "indicator": "opp", "street": "Queens Park Road", "name": "Pepper Pot", "long": "-0.1251927455", "naptanCode": "briadpt", "lat": "50.8275364544"}, {"bearing": "NE", "indicator": "NE-bound", "street": "Queens Park Road", "name": "Albion Hill", "long": "-0.1270900988", "naptanCode": "bridwjp", "lat": "50.8262538499"}, {"bearing": "NE", "indicator": "NE-bound", "street": "Queens Park Road", "name": "Egremont Gate", "long": "-0.128947661", "naptanCode": "bridtwj", "lat": "50.8241881223"}, {"bearing": "NE", "indicator": "NE-bound", "street": "Goldstone Crescent", "name": "Egremont Place", "long": "-0.1291581889", "naptanCode": "briadap", "lat": "50.822473697"}, {"bearing": "E", "indicator": "E-bound", "street": "Upper Gloucester Road", "name": "Upper Gloucester Road", "long": "-0.1440133642", "naptanCode": "brimjag", "lat": "50.8277564818"}, {"bearing": "NE", "indicator": "opp", "street": "Coombe Road", "name": "Fitzherbert Drive", "long": "-0.1141049276", "naptanCode": "brijtat", "lat": "50.8376915172"}, {"bearing": "NE", "indicator": "adj", "street": "Bevendean Road", "name": "Eastbourne Road", "long": "-0.1124525053", "naptanCode": "bridmgp", "lat": "50.8395714616"}, {"bearing": "SE", "indicator": "adj", "street": "Bevendean Road", "name": "Baden Road", "long": "-0.1147229421", "naptanCode": "briawgd", "lat": "50.8378633935"}, {"bearing": "E", "indicator": "E-bound", "street": "Coombe Road", "name": "Bottom Of Coombe Road", "long": "-0.121167489", "naptanCode": "briamam", "lat": "50.8404316427"}, {"bearing": "SE", "indicator": "o/s", "street": "Coombe Road", "name": "Coombe Road School", "long": "-0.1184291433", "naptanCode": "briadmt", "lat": "50.8396500239"}, {"bearing": "SE", "indicator": "Stop T", "street": "Southover Street", "name": "Hanover Street", "long": "-0.1314147903", "naptanCode": "bridtjp", "lat": "50.8299656638"}, {"bearing": "SE", "indicator": "adj", "street": "Southover Street", "name": "Ewart Street", "long": "-0.1287266527", "naptanCode": "bridgat", "lat": "50.8282947091"}, {"bearing": "SE", "indicator": "adj", "street": "Southover Street", "name": "Washington Street", "long": "-0.1298357287", "naptanCode": "briajpm", "lat": "50.8289690371"}, {"bearing": "E", "indicator": "Stop N", "street": "Oxford Street", "name": "Open Market", "long": "-0.1347814073", "naptanCode": "brimjap", "lat": "50.8310088521"}, {"bearing": "SE", "indicator": "SE-bound", "street": "Dawson Terrace", "name": "Dawson Terrace", "long": "-0.1209496814", "naptanCode": "briawat", "lat": "50.8253456605"}, {"bearing": "NW", "indicator": "NW-bound", "street": "Down Terrace", "name": "Freshfield Inn", "long": "-0.1188229164", "naptanCode": "brijmdj", "lat": "50.8277396895"}, {"bearing": "S", "indicator": "S-bound", "street": "Queens Park Terrace", "name": "Queens Park Terrace", "long": "-0.1221443258", "naptanCode": "brimjaw", "lat": "50.8267139586"}, {"bearing": "E", "indicator": "adj", "street": "Pankhurst Avenue", "name": "Clayton Road", "long": "-0.1164512552", "naptanCode": "brimpta", "lat": "50.8295091583"}, {"bearing": "SE", "indicator": "adj", "street": "Southover Street", "name": "Finsbury Road", "long": "-0.1273824761", "naptanCode": "brimjda", "lat": "50.8274637031"}, {"bearing": "E", "indicator": "adj", "street": "Pankhurst Avenue", "name": "Hallett Road", "long": "-0.1188739332", "naptanCode": "briawdm", "lat": "50.8292964278"}, {"bearing": "E", "indicator": "E-bound", "street": "Pankhurst Avenue", "name": "The Hanover", "long": "-0.1217663507", "naptanCode": "briawdw", "lat": "50.8290552366"}, {"bearing": "NE", "indicator": "Stop D", "street": "Old Steine", "name": "Old Steine", "long": "-0.137283071", "naptanCode": "bridwad", "lat": "50.8216773743"}, {"bearing": "NE", "indicator": "Stop E", "street": "Old Steine", "name": "Old Steine", "long": "-0.1370907393", "naptanCode": "brimjdg", "lat": "50.8218721647"}, {"bearing": "NE", "indicator": "Stop F", "street": "Old Steine", "name": "Old Steine", "long": "-0.1369147422", "naptanCode": "brimjdj", "lat": "50.8220132533"}, {"bearing": "E", "indicator": "Stop J", "street": "St James's Street", "name": "St James's Street", "long": "-0.1358128846", "naptanCode": "brimjdm", "lat": "50.8211592325"}, {"bearing": "E", "indicator": "Stop K", "street": "Marine Parade", "name": "Sea Life Centre", "long": "-0.1354901561", "naptanCode": "brimjdp", "lat": "50.8199938836"}, {"bearing": "E", "indicator": "E-bound", "street": "Madeira Drive", "name": "Sea Life Centre", "long": "-0.1347202996", "naptanCode": "brimpam", "lat": "50.8193610079"}, {"bearing": "W", "indicator": "Stop N", "street": "Grand Junction Road", "name": "Palace Pier", "long": "-0.1378293923", "naptanCode": "brijawg", "lat": "50.8193657169"}, {"bearing": "W", "indicator": "Stop R", "street": "Old Steine", "name": "Old Steine south", "long": "-0.1371480988", "naptanCode": "briajdg", "lat": "50.8200743361"}, {"bearing": "NE", "indicator": "Stop U", "street": "Old Steine", "name": "Old Steine south", "long": "-0.1380175671", "naptanCode": "brimjdt", "lat": "50.8210595409"}, {"bearing": "NE", "indicator": "Stop V", "street": "Old Steine", "name": "Old Steine south", "long": "-0.1381797257", "naptanCode": "brimjdw", "lat": "50.820909236"}, {"bearing": "NW", "indicator": "Stop W", "street": "North Street", "name": "North Street", "long": "-0.1404746706", "naptanCode": "brimjga", "lat": "50.8228255317"}, {"bearing": "W", "indicator": "Stop X", "street": "North Street", "name": "North Street", "long": "-0.1410067382", "naptanCode": "brimjgd", "lat": "50.8230138869"}, {"bearing": "W", "indicator": "Stop Y", "street": "North Street", "name": "North Street", "long": "-0.1406697553", "naptanCode": "brimjgj", "lat": "50.8229185787"}, {"bearing": "S", "indicator": "Stop Z", "street": "Old Steine", "name": "Old Steine south", "long": "-0.1366318097", "naptanCode": "brimjgm", "lat": "50.8205607444"}, {"bearing": "E", "indicator": "E-bound", "street": "Meadowview", "name": "Jewish Cemetery", "long": "-0.1109220379", "naptanCode": "brimjgp", "lat": "50.8394837323"}, {"bearing": "NE", "indicator": "NE-bound", "street": "Queensway", "name": "Top of Queensway", "long": "-0.114691239", "naptanCode": "bridjpa", "lat": "50.8280777032"}, {"bearing": "E", "indicator": "adj", "street": "Meadowview", "name": "Ghyllside", "long": "-0.1091600814", "naptanCode": "brimjgt", "lat": "50.8391494004"}, {"bearing": "E", "indicator": "adj", "street": "Meadowview", "name": "Dawlish Close", "long": "-0.1056213214", "naptanCode": "bridgaw", "lat": "50.8388491581"}, {"bearing": "W", "indicator": "opp", "street": "Eaton Road", "name": "Cricket Ground", "long": "-0.1640664118", "naptanCode": "brimtma", "lat": "50.8295038126"}, {"bearing": "W", "indicator": "opp", "street": "Lansdowne Road", "name": "Law Courts", "long": "-0.1615865198", "naptanCode": "brimtjw", "lat": "50.8282865832"}, {"bearing": "W", "indicator": "o/s", "street": "The Strand", "name": "Seattle Hotel", "long": "-0.1014669279", "naptanCode": "brimtgp", "lat": "50.8124209292"}, {"bearing": "N", "indicator": "N-bound", "street": "Woodland Avenue", "name": "Woodland Avenue", "long": "-0.1759010236", "naptanCode": "brimpjm", "lat": "50.8508515462"}, {"bearing": "SW", "indicator": "SW-bound", "street": "Godwin Road", "name": "Martin Road", "long": "-0.2002991152", "naptanCode": "brijapm", "lat": "50.8426145566"}, {"bearing": "NW", "indicator": "opp", "street": "Down Terrace", "name": "Stonehurst Court", "long": "-0.1204659349", "naptanCode": "briajpj", "lat": "50.8281978738"}, {"bearing": "W", "indicator": "opp", "street": "Davigdor Road", "name": "Lyon Close", "long": "-0.1588845285", "naptanCode": "brijptp", "lat": "50.8316345891"}, {"bearing": "N", "indicator": "N-bound", "street": "Selborne Road", "name": "Selborne Road", "long": "-0.1655258385", "naptanCode": "bridmtd", "lat": "50.827413257"}, {"bearing": "N", "indicator": "opp", "street": "Grand Avenue", "name": "King's House", "long": "-0.1693322186", "naptanCode": "brimpmd", "lat": "50.8252156408"}, {"bearing": "N", "indicator": "Stop H", "street": "Goldstone Villas", "name": "George Street", "long": "-0.1726752105", "naptanCode": "briapjd", "lat": "50.8312398588"}, {"bearing": "N", "indicator": "N-bound", "street": "Belle Vue Gardens", "name": "Belle Vue Gardens", "long": "-0.1194553517", "naptanCode": "briawta", "lat": "50.8204829474"}, {"bearing": "S", "indicator": "Stop N", "street": "Norton Road", "name": "Town Hall", "long": "-0.1707192113", "naptanCode": "brimpmg", "lat": "50.8286010364"}, {"bearing": "E", "indicator": "Stop R", "street": "Stroudley Road", "name": "Brighton Railway Station", "long": "-0.1404155297", "naptanCode": "brimpat", "lat": "50.8303883006"}, {"bearing": "NW", "indicator": "Stop Z", "street": "St Helens Church", "name": "London Road Shops", "long": "-0.1363428994", "naptanCode": "brimjmg", "lat": "50.8310248156"}, {"bearing": "S", "indicator": "Stop H", "street": "Queen's Road", "name": "Brighton Station", "long": "-0.1412523287", "naptanCode": "brimjmj", "lat": "50.8282701287"}, {"bearing": "N", "indicator": "Stop F", "street": "Surrey Street", "name": "Brighton Station", "long": "-0.1419402094", "naptanCode": "briajgj", "lat": "50.8284699555"}, {"bearing": "N", "indicator": "Stop E", "street": "Surrey Street", "name": "Brighton Station", "long": "-0.1419859958", "naptanCode": "briajga", "lat": "50.8283897415"}, {"bearing": "E", "indicator": "adj", "street": "North Road", "name": "Kensington Gardens", "long": "-0.1388845656", "naptanCode": "briajdw", "lat": "50.8256781612"}, {"bearing": "N", "indicator": "Stop A", "street": "York Place", "name": "St Peters Church", "long": "-0.1353936056", "naptanCode": "bridjpt", "lat": "50.8277629151"}, {"bearing": "N", "indicator": "Stop V", "street": "York Place", "name": "St Peters Church", "long": "-0.1354286577", "naptanCode": "bridadm", "lat": "50.8279523434"}, {"bearing": "N", "indicator": "Stop U", "street": "Richmond Place", "name": "St Peters Church", "long": "-0.1345592701", "naptanCode": "brijgjm", "lat": "50.8283881293"}, {"bearing": "N", "indicator": "Stop O", "street": "Ditchling Road", "name": "Open Market", "long": "-0.1343567895", "naptanCode": "brijgjd", "lat": "50.831685584"}, {"bearing": "E", "indicator": "Stop M", "street": "Oxford Street", "name": "Open Market", "long": "-0.135380342", "naptanCode": "bridtdw", "lat": "50.8309464776"}, {"bearing": "W", "indicator": "adj", "street": "Western Road", "name": "Norfolk Square", "long": "-0.1547141858", "naptanCode": "bridtdm", "lat": "50.8250302786"}, {"bearing": "W", "indicator": "adj", "street": "Western Road", "name": "Palmeira Square", "long": "-0.1635321161", "naptanCode": "bridptj", "lat": "50.8264735236"}, {"bearing": "W", "indicator": "W-bound", "street": "Church Road", "name": "Second Avenue", "long": "-0.1670396207", "naptanCode": "bridtjt", "lat": "50.8271942239"}, {"bearing": "W", "indicator": "adj", "street": "Church Road", "name": "Second Avenue", "long": "-0.1676186451", "naptanCode": "brimjmp", "lat": "50.8272752704"}, {"bearing": "W", "indicator": "Stop D", "street": "Church Road", "name": "Town Hall", "long": "-0.1720567989", "naptanCode": "brimjmt", "lat": "50.8278035796"}, {"bearing": "N", "indicator": "Stop B", "street": "Tisbury Road", "name": "Town Hall", "long": "-0.169946273", "naptanCode": "bridjgt", "lat": "50.8280313048"}, {"bearing": "W", "indicator": "Stop R", "street": "New Church Road", "name": "Hove Street", "long": "-0.1793854619", "naptanCode": "bridjgm", "lat": "50.8288625263"}, {"bearing": "SW", "indicator": "Stop W", "street": "Hove Street", "name": "Hove Street", "long": "-0.1786784726", "naptanCode": "bridjga", "lat": "50.8284197939"}, {"bearing": "N", "indicator": "Stop S", "street": "Sackville Road", "name": "Hove Street", "long": "-0.1787016532", "naptanCode": "brimjmw", "lat": "50.8292835481"}, {"bearing": "SW", "indicator": "Stop B", "street": "Upper Drive", "name": "Cardinal Newman School", "long": "-0.1578377256", "naptanCode": "brimptw", "lat": "50.8376618179"}, {"bearing": "W", "indicator": "W-bound", "street": "The Upper Drive", "name": "The Drive", "long": "-0.1658813759", "naptanCode": "brijmpm", "lat": "50.8353692603"}, {"bearing": "N", "indicator": "adj", "street": "Holmes Avenue", "name": "Wayfield Avenue", "long": "-0.1881656172", "naptanCode": "briajtm", "lat": "50.8408528629"}, {"bearing": "SW", "indicator": "o/s", "street": "Marshall Way", "name": "Millview Hospital", "long": "-0.1897512145", "naptanCode": "brijtga", "lat": "50.8435575821"}, {"bearing": "N", "indicator": "N-bound", "street": "Holmes Avenue", "name": "Bishop Hannington Church", "long": "-0.1875131544", "naptanCode": "bridjdg", "lat": "50.8430281832"}, {"bearing": "S", "indicator": "S-bound", "street": "West Street", "name": "Event II", "long": "-0.1446541795", "naptanCode": "briagjg", "lat": "50.8212642232"}, {"bearing": "W", "indicator": "Stop D", "street": "Western Road", "name": "Churchill Square", "long": "-0.1465562687", "naptanCode": "briawad", "lat": "50.8237857204"}, {"bearing": "W", "indicator": "Stop C", "street": "Western Road", "name": "Churchill Square", "long": "-0.1460912025", "naptanCode": "briampg", "lat": "50.8236973865"}, {"bearing": "W", "indicator": "Stop B", "street": "Western Road", "name": "Churchill Square", "long": "-0.1456101675", "naptanCode": "briampd", "lat": "50.8236537653"}, {"bearing": "W", "indicator": "Stop A", "street": "Western Road", "name": "Churchill Square", "long": "-0.1450734424", "naptanCode": "briampa", "lat": "50.8235822755"}, {"bearing": "W", "indicator": "E-bound", "street": "Kingsway", "name": "Tandridge Road", "long": "-0.1980478622", "naptanCode": "brimpgt", "lat": "50.8280460817"}, {"bearing": "N", "indicator": "Stop R", "street": "Gloucester Place", "name": "Gloucester Place", "long": "-0.1359795734", "naptanCode": "brimptd", "lat": "50.8290943562"}, {"bearing": "", "indicator": "Stop P", "street": "Pool Valley", "name": "Pool Valley Coach Station", "long": "-0.1379853533", "naptanCode": "brijwjt", "lat": "50.8197279556"}, {"bearing": "NW", "indicator": "NW-bound", "street": "Devils Dyke Road", "name": "Poor Man's Corner", "long": "-0.1888442542", "naptanCode": "brimtpd", "lat": "50.8655059353"}, {"bearing": "SE", "indicator": "SE-bound", "street": "Devils Dyke Road", "name": "Poor Man's Corner", "long": "-0.1893581212", "naptanCode": "brimtpa", "lat": "50.8665481752"}, {"bearing": "NW", "indicator": "opp", "street": "Dyke Road", "name": "Porthall Road", "long": "-0.1524393121", "naptanCode": "brimjtw", "lat": "50.835894627"}, {"bearing": "SE", "indicator": "adj", "street": "Dyke Road", "name": "Porthall Road", "long": "-0.151431584", "naptanCode": "brimpdg", "lat": "50.8351591676"}, {"bearing": "N", "indicator": "o/s", "street": "West Street", "name": "Wetherspoons", "long": "-0.1441303355", "naptanCode": "brijwjw", "lat": "50.8226589092"}, {"bearing": "E", "indicator": "E-bound", "street": "Hollingbury Road", "name": "Fiveways", "long": "-0.1342863931", "naptanCode": "brimpwg", "lat": "50.8434212406"}, {"bearing": "SW", "indicator": "adj", "street": "Davey Drive", "name": "St Josephs School", "long": "-0.126180844", "naptanCode": "brimpwp", "lat": "50.8422210807"}, {"bearing": "NW", "indicator": "in", "street": "School Grounds", "name": "Dorothy Stringer School Grounds", "long": "-0.1423614248", "naptanCode": "brimtad", "lat": "50.8479030429"}, {"bearing": "NW", "indicator": "opp", "street": "Southover Street", "name": "Ewart Street", "long": "-0.1288583276", "naptanCode": "brimtag", "lat": "50.8281978904"}, {"bearing": "NE", "indicator": "Stop T", "street": "Old Steine", "name": "Old Steine south", "long": "-0.1383418832", "naptanCode": "brijdpd", "lat": "50.8207589309"}, {"bearing": "SE", "indicator": "Stop B", "street": "North Street", "name": "North Street", "long": "-0.1390484102", "naptanCode": "briawgw", "lat": "50.8222721565"}, {"bearing": "E", "indicator": "Stop O", "street": "Grand Junction Road", "name": "Palace Pier", "long": "-0.1384355706", "naptanCode": "brijdtm", "lat": "50.8194743238"}, {"bearing": "N", "indicator": "Stop I", "street": "Surrey Street", "name": "Brighton Station", "long": "-0.1420190182", "naptanCode": "briatpd", "lat": "50.8282733492"}, {"bearing": "W", "indicator": "Stop S", "street": "Old Steine", "name": "Old Steine south", "long": "-0.1374850539", "naptanCode": "bridtwt", "lat": "50.8201696542"}, {"bearing": "S", "indicator": "Stop Q", "street": "Old Steine", "name": "Old Steine south", "long": "-0.1368482221", "naptanCode": "bridptw", "lat": "50.8204742641"}, {"bearing": "S", "indicator": "Stop G", "street": "Old Steine", "name": "Old Steine", "long": "-0.1368996019", "naptanCode": "briawjp", "lat": "50.8216802437"}, {"bearing": "", "indicator": "Entrance", "street": "Station Approach", "name": "Aldrington Rail Station", "long": "-0.1815347646", "naptanCode": "briagdp", "lat": "50.8364057588"}, {"bearing": "", "indicator": "Entrance", "street": "London Road", "name": "London Road (Brighton) Rail Station", "long": "-0.136707724", "naptanCode": "brijwma", "lat": "50.8368405774"}, {"bearing": "", "indicator": "Entrance 1", "street": "Queens Road", "name": "Brighton Rail Station", "long": "-0.141460826", "naptanCode": "briadgp", "lat": "50.8287411236"}, {"bearing": "", "indicator": "Entrance", "street": "Goldstone Villas", "name": "Hove Rail Station", "long": "-0.1708439062", "naptanCode": "bridpjm", "lat": "50.8355820823"}, {"bearing": "", "indicator": "Entrance 1", "street": "Woodside Avenue", "name": "Preston Park Rail Station", "long": "-0.1548053763", "naptanCode": "briamtg", "lat": "50.846121912"}]